time_s,north_vel_fps,east_vel_fps,down_vel_fps,height_ft,total_pres_psi,static_pres_psi,total_temp_K,aoa_rad,aos_rad,roll_angle_rad,pitch_angle_rad,true_heading_rad
0,50.96804574,-1088.980358784,-0.865861908,23050.5249343832,12.5740141203455,6.25126956722357,314.33153596852,-0.220173117895446,-0.0165257069538233,-0.0022050973574965,0.00786165144846579,-1.56581087141882
0.05,50.96804574,-1088.980358784,-0.865861908,23050.5249343832,12.5682208767574,6.25126956722357,314.328370821573,-0.220231418125886,-0.0165016843942462,-0.00191747596304044,0.00776577765031377,-1.56590674521697
0.1,50.96804574,-1088.980358784,-0.865861908,23050.5249343832,12.5682208767574,6.25126956722357,314.322040527679,-0.220260568241106,-0.0164896731144577,-0.00191747596304044,0.00766990385216174,-1.56590674521697
0.15,50.960898304,-1088.81583808,-1.162533898,23050.5249343832,12.5682208767574,6.25126956722357,314.315710233786,-0.220348018586766,-0.0164896731144577,-0.00201334976119246,0.0074781562558577,-1.56609849281328
0.2,50.960898304,-1088.81583808,-1.162533898,23050.8530183727,12.5682208767574,6.25126956722357,314.312545086839,-0.220377168701986,-0.0165016843942462,-0.0022050973574965,0.00728640865955366,-1.56609849281328
0.25,50.960898304,-1088.81583808,-1.162533898,23050.8530183727,12.5682208767574,6.25126956722357,314.312545086839,-0.220464619047646,-0.0164896731144577,-0.00249271875195257,0.00709466106324961,-1.56609849281328
0.3,50.960898304,-1088.81583808,-1.162533898,23050.8530183727,12.5682208767574,6.25126956722357,314.309379939892,-0.220610369623746,-0.0164896731144577,-0.00287621394456065,0.00690291346694557,-1.56609849281328
0.35,50.964761886,-1088.578942912,-1.245673377,23050.8530183727,12.5662048579668,6.25126956722357,314.306214792945,-0.220639519738966,-0.0165136956740347,-0.00354733053162481,0.00671116587064153,-1.56600261901512
0.4,50.964761886,-1088.578942912,-1.245673377,23050.8530183727,12.5662048579668,6.25126956722357,314.303049645998,-0.220697819969406,-0.0165016843942462,-0.00393082572423289,0.0066152920724895,-1.56600261901512
0.45,50.964761886,-1088.578942912,-1.245673377,23050.8530183727,12.5662048579668,6.25126956722357,314.303049645998,-0.220668669854186,-0.0165257069538233,-0.00450606851314502,0.00651941827433748,-1.56590674521697
0.5,50.964761886,-1088.578942912,-1.245673377,23050.8530183727,12.5662048579668,6.25126956722357,314.299884499051,-0.220668669854186,-0.0165016843942462,-0.00488956370575311,0.00651941827433748,-1.56590674521697
0.55,50.942976318,-1088.428457728,-1.151088084,23050.8530183727,12.5662048579668,6.25126956722357,314.299884499051,-0.220581219508526,-0.0165136956740347,-0.00536893269651322,0.0066152920724895,-1.56571499762067
0.6,50.942976318,-1088.428457728,-1.151088084,23050.8530183727,12.5662048579668,6.25126956722357,314.296719352104,-0.220639519738966,-0.0165257069538233,-0.00556068029281726,0.0066152920724895,-1.56571499762067
0.65,50.942976318,-1088.428457728,-1.151088084,23050.8530183727,12.5590850890034,6.25107471038878,314.293554205157,-0.220610369623746,-0.0165257069538233,-0.00575242788912131,0.00671116587064153,-1.56571499762067
0.7,50.942976318,-1088.428457728,-1.151088084,23051.5091863517,12.5590850890034,6.25107471038878,314.293554205157,-0.220668669854186,-0.0165257069538233,-0.00575242788912131,0.00671116587064153,-1.56561912382252
0.75,50.88631172,-1088.191684608,-1.016724678,23051.5091863517,12.5590850890034,6.25107471038878,314.29038905821,-0.220552069393306,-0.0165377182336118,-0.00575242788912131,0.00680703966879355,-1.56561912382252
0.8,50.88631172,-1088.191684608,-1.016724678,23051.5091863517,12.5590850890034,6.25107471038878,314.284058764316,-0.220522919278086,-0.0165497295134002,-0.00575242788912131,0.00690291346694557,-1.56561912382252
0.85,50.88631172,-1088.191684608,-1.016724678,23051.5091863517,12.5590850890034,6.25107471038878,314.284058764316,-0.220581219508526,-0.0165377182336118,-0.00565655409096929,0.00690291346694557,-1.56571499762067
0.9,50.88631172,-1088.191684608,-1.016724678,23051.8372703412,12.5590850890034,6.25107471038878,314.280893617369,-0.220610369623746,-0.0165136956740347,-0.00575242788912131,0.00680703966879355,-1.56571499762067
0.95,50.836580974,-1088.015691392,-0.896219441,23051.8372703412,12.5525498905444,6.25083488659212,314.271398176528,-0.220668669854186,-0.0165016843942462,-0.00575242788912131,0.00671116587064153,-1.56581087141882
1,50.836580974,-1088.015691392,-0.896219441,23051.8372703412,12.5525498905444,6.25083488659212,314.268233029581,-0.220639519738966,-0.0165136956740347,-0.00575242788912131,0.00651941827433748,-1.56581087141882
1.05,50.836580974,-1088.015691392,-0.896219441,23051.8372703412,12.5525498905444,6.25083488659212,314.265067882634,-0.220610369623746,-0.0164896731144577,-0.00604004928357737,0.00632767067803344,-1.56581087141882
1.1,50.836580974,-1088.015691392,-0.896219441,23051.8372703412,12.5525498905444,6.25083488659212,314.25873758874,-0.220668669854186,-0.0164776618346691,-0.00623179687988142,0.00604004928357737,-1.56590674521697
1.15,50.804600584,-1087.714598976,-0.644741444,23051.8372703412,12.5525498905444,6.25083488659212,314.25873758874,-0.220756120199846,-0.0165016843942462,-0.0066152920724895,0.00575242788912131,-1.56581087141882
1.2,50.804600584,-1087.714598976,-0.644741444,23052.1653543307,12.5525498905444,6.25083488659212,314.261902735687,-0.220843570545506,-0.0164896731144577,-0.00690291346694557,0.00546480649466524,-1.56581087141882
1.25,50.804600584,-1087.714598976,-0.644741444,23052.1653543307,12.5442984530406,6.25083488659212,314.255572441793,-0.220931020891166,-0.0164896731144577,-0.0074781562558577,0.00517718510020918,-1.56571499762067
1.3,50.804600584,-1087.714598976,-0.644741444,23052.1653543307,12.5442984530406,6.25083488659212,314.255572441793,-0.220901870775946,-0.0165257069538233,-0.00776577765031377,0.00498543750390513,-1.56561912382252
1.35,50.778669198,-1087.485148736,-0.333192947,23052.1653543307,12.5442984530406,6.25083488659212,314.252407294846,-0.220960171006385,-0.0165257069538233,-0.00814927284292185,0.00469781610944907,-1.56552325002436
1.4,50.778669198,-1087.485148736,-0.333192947,23052.4934383202,12.5442984530406,6.25083488659212,314.252407294846,-0.220901870775946,-0.0165377182336118,-0.00843689423737792,0.00460194231129705,-1.56542737622621
1.45,50.778669198,-1087.485148736,-0.333192947,23052.4934383202,12.5442984530406,6.25083488659212,314.252407294846,-0.220872720660726,-0.0165857633527658,-0.00862864183368196,0.00450606851314502,-1.56533150242806
1.5,50.778669198,-1087.485148736,-0.333192947,23052.4934383202,12.5442984530406,6.25083488659212,314.249242147899,-0.220872720660726,-0.0165857633527658,-0.00872451563183398,0.00450606851314502,-1.56523562862991
1.55,50.701897192,-1087.130233152,0.172387079,23052.4934383202,12.535852158702,6.25049013988442,314.252407294846,-0.220843570545506,-0.0165617407931888,-0.00872451563183398,0.00460194231129705,-1.56513975483176
1.6,50.701897192,-1087.130233152,0.172387079,23052.4934383202,12.535852158702,6.25049013988442,314.249242147899,-0.220639519738966,-0.0165857633527658,-0.00862864183368196,0.00469781610944907,-1.56523562862991
1.65,50.701897192,-1087.130233152,0.172387079,23052.4934383202,12.535852158702,6.25049013988442,314.249242147899,-0.220668669854186,-0.0165617407931888,-0.00824514664107387,0.00479368990760109,-1.56523562862991
1.7,50.701897192,-1087.130233152,0.172387079,23052.8215223097,12.535852158702,6.25049013988442,314.246077000952,-0.220552069393306,-0.0165617407931888,-0.00824514664107387,0.00488956370575311,-1.56523562862991
1.75,50.641288918,-1086.86856224,0.311340634,23052.8215223097,12.535852158702,6.25049013988442,314.249242147899,-0.220610369623746,-0.0165257069538233,-0.00814927284292185,0.00498543750390513,-1.56542737622621
1.8,50.641288918,-1086.86856224,0.311340634,23052.8215223097,12.535852158702,6.25049013988442,314.249242147899,-0.220581219508526,-0.0165257069538233,-0.00805339904476983,0.00508131130205716,-1.56552325002436
1.85,50.641288918,-1086.86856224,0.311340634,23052.8215223097,12.5336412830765,6.25028778855599,314.249242147899,-0.220581219508526,-0.0165497295134002,-0.00814927284292185,0.00508131130205716,-1.56561912382252
1.9,50.641288918,-1086.86856224,0.311340634,23052.8215223097,12.5336412830765,6.25028778855599,314.249242147899,-0.220493769162866,-0.0165257069538233,-0.00814927284292185,0.00488956370575311,-1.56571499762067
1.95,50.581264186,-1086.408563328,0.446264698,23052.8215223097,12.5336412830765,6.25028778855599,314.242911854005,-0.220552069393306,-0.0165016843942462,-0.00843689423737792,0.00469781610944907,-1.56581087141882
2,50.581264186,-1086.408563328,0.446264698,23052.8215223097,12.5336412830765,6.25028778855599,314.236581560111,-0.220697819969406,-0.0165136956740347,-0.00853276803552994,0.00450606851314502,-1.56590674521697
2.05,50.581264186,-1086.408563328,0.446264698,23052.8215223097,12.5336412830765,6.25028778855599,314.223920972324,-0.220726970084626,-0.0165016843942462,-0.00929975842074612,0.00393082572423289,-1.56581087141882
2.1,50.581264186,-1086.408563328,0.446264698,23052.8215223097,12.5336412830765,6.25028778855599,314.220755825377,-0.220814420430286,-0.0165136956740347,-0.00987500120965825,0.00354733053162481,-1.56590674521697
2.15,50.546087664,-1086.090994432,0.602413672,23052.8215223097,12.5329517896611,6.25039271146703,314.21759067843,-0.220989321121605,-0.0165257069538233,-0.0101626226041143,0.00335558293532076,-1.56581087141882
2.2,50.546087664,-1086.090994432,0.602413672,23053.1496062992,12.5329517896611,6.25039271146703,314.214425531483,-0.220960171006385,-0.0165977746325544,-0.0104502439985704,0.00325970913716874,-1.56581087141882
2.25,50.546087664,-1086.090994432,0.602413672,23053.1496062992,12.5329517896611,6.25039271146703,314.208095237589,-0.220960171006385,-0.0165737520729773,-0.0104502439985704,0.00316383533901672,-1.56581087141882
2.3,50.546087664,-1086.090994432,0.602413672,23053.1496062992,12.5329517896611,6.25039271146703,314.204930090642,-0.220931020891166,-0.0166097859123429,-0.0103543702004184,0.00325970913716874,-1.56581087141882
2.35,50.47113875,-1085.567896704,1.067948605,23053.1496062992,12.5329517896611,6.25039271146703,314.192269502854,-0.220931020891166,-0.0165857633527658,-0.0100667488059623,0.00335558293532076,-1.56581087141882
2.4,50.47113875,-1085.567896704,1.067948605,23053.1496062992,12.5329517896611,6.25039271146703,314.189104355907,-0.220931020891166,-0.0165977746325544,-0.0096832536133542,0.00354733053162481,-1.56600261901512
2.45,50.47113875,-1085.567896704,1.067948605,23053.1496062992,12.5188546471137,6.25028778855599,314.182774062013,-0.220872720660726,-0.0165977746325544,-0.00929975842074612,0.00364320432977683,-1.56600261901512
2.5,50.47113875,-1085.567896704,1.067948605,23053.1496062992,12.5188546471137,6.25028778855599,314.170113474225,-0.220697819969406,-0.0165977746325544,-0.00872451563183398,0.00393082572423289,-1.56609849281328
2.55,50.427903246,-1085.194795968,1.333416354,23053.1496062992,12.5188546471137,6.25028778855599,314.157452886437,-0.220668669854186,-0.0165737520729773,-0.00843689423737792,0.00402669952238492,-1.56619436661143
2.6,50.427903246,-1085.194795968,1.333416354,23053.1496062992,12.5188546471137,6.25028778855599,314.141627151702,-0.220581219508526,-0.0165737520729773,-0.00814927284292185,0.00421844711868896,-1.56629024040958
2.65,50.427903246,-1085.194795968,1.333416354,23053.1496062992,12.5188546471137,6.25028778855599,314.128966563915,-0.220581219508526,-0.0165737520729773,-0.00795752524661781,0.00431432091684098,-1.56638611420773
2.7,50.427903246,-1085.194795968,1.333416354,23053.1496062992,12.5188546471137,6.25028778855599,314.11314082918,-0.220581219508526,-0.0165377182336118,-0.00786165144846579,0.00431432091684098,-1.56648198800588
2.75,50.390022598,-1084.584189824,1.504253042,23052.8215223097,12.5059416345623,6.2501903601386,314.094149947498,-0.220522919278086,-0.0165617407931888,-0.00776577765031377,0.004410194714993,-1.56648198800588
2.8,50.390022598,-1084.584189824,1.504253042,23052.8215223097,12.5059416345623,6.2501903601386,314.075159065816,-0.220552069393306,-0.0165857633527658,-0.00776577765031377,0.00431432091684098,-1.56657786180404
2.85,50.390022598,-1084.584189824,1.504253042,23052.8215223097,12.5059416345623,6.2501903601386,314.059333331081,-0.220581219508526,-0.0165617407931888,-0.00776577765031377,0.00431432091684098,-1.56657786180404
2.9,50.390022598,-1084.584189824,1.504253042,23052.8215223097,12.5059416345623,6.2501903601386,314.043507596347,-0.220581219508526,-0.0165497295134002,-0.00766990385216174,0.00421844711868896,-1.56657786180404
2.95,50.364186562,-1084.142498112,1.488720527,23052.8215223097,12.5059416345623,6.2501903601386,314.024516714665,-0.220610369623746,-0.0165497295134002,-0.00766990385216174,0.00412257332053694,-1.56667373560219
3,50.364186562,-1084.142498112,1.488720527,23052.8215223097,12.5059416345623,6.2501903601386,314.005525832983,-0.220639519738966,-0.0165497295134002,-0.00766990385216174,0.00402669952238492,-1.56657786180404
3.05,50.364186562,-1084.142498112,1.488720527,23052.8215223097,12.49164963518,6.25034025001151,313.992865245195,-0.220697819969406,-0.0165977746325544,-0.0074781562558577,0.00383495192608087,-1.56667373560219
3.1,50.364186562,-1084.142498112,1.488720527,23052.8215223097,12.49164963518,6.25034025001151,313.97703951046,-0.220668669854186,-0.0165617407931888,-0.0074781562558577,0.00373907812792885,-1.56667373560219
3.15,50.312842494,-1083.422903104,1.685984421,23052.8215223097,12.49164963518,6.25034025001151,313.961213775725,-0.220843570545506,-0.0165497295134002,-0.00738228245770568,0.00373907812792885,-1.56667373560219
3.2,50.312842494,-1083.422903104,1.685984421,23052.8215223097,12.49164963518,6.25034025001151,313.948553187938,-0.220785270315066,-0.0165257069538233,-0.00738228245770568,0.00373907812792885,-1.56667373560219
3.25,50.312842494,-1083.422903104,1.685984421,23052.4934383202,12.49164963518,6.25034025001151,313.932727453203,-0.220785270315066,-0.0165136956740347,-0.00738228245770568,0.00373907812792885,-1.56657786180404
3.3,50.312842494,-1083.422903104,1.685984421,23052.4934383202,12.49164963518,6.25034025001151,313.920066865415,-0.220493769162866,-0.0165737520729773,-0.00738228245770568,0.00373907812792885,-1.56648198800588
3.35,50.279092408,-1082.933978816,1.88684301,23052.4934383202,12.478729128135,6.25034025001151,313.910571424574,-0.220668669854186,-0.0165977746325544,-0.0074781562558577,0.00383495192608087,-1.56638611420773
3.4,50.279092408,-1082.933978816,1.88684301,23052.4934383202,12.478729128135,6.25034025001151,313.901075983733,-0.220931020891166,-0.0167539212698051,-0.00738228245770568,0.00393082572423289,-1.56619436661143
3.45,50.279092408,-1082.933978816,1.88684301,23052.1653543307,12.478729128135,6.25034025001151,313.891580542892,-0.220697819969406,-0.0167178874304396,-0.00671116587064153,0.00402669952238492,-1.56619436661143
3.5,50.279092408,-1082.933978816,1.88684301,23052.1653543307,12.478729128135,6.25034025001151,313.882085102051,-0.220493769162866,-0.0166938648708625,-0.00469781610944907,0.00412257332053694,-1.56619436661143
3.55,50.279092408,-1082.933978816,1.88684301,23052.1653543307,12.478729128135,6.25034025001151,313.866259367316,-0.220639519738966,-0.01663380847192,-0.00335558293532076,0.00450606851314502,-1.56638611420773
3.6,50.18953206,-1082.143595968,2.128723076,23052.1653543307,12.478729128135,6.25034025001151,313.853598779529,-0.220377168701986,-0.0165737520729773,-0.00191747596304044,0.00460194231129705,-1.56657786180404
3.65,50.18953206,-1082.143595968,2.128723076,23052.1653543307,12.4675323546284,6.25034025001151,313.8314427509,-0.220056517434566,-0.0166217971921314,-0.00134223317412831,0.00469781610944907,-1.56657786180404
3.7,50.18953206,-1082.143595968,2.128723076,23052.1653543307,12.4675323546284,6.25034025001151,313.806121575324,-0.220114817665006,-0.0165497295134002,-0.000862864183368196,0.00488956370575311,-1.56657786180404
3.75,50.18953206,-1082.143595968,2.128723076,23051.8372703412,12.4675323546284,6.25034025001151,313.780800399748,-0.220435468932426,-0.0165737520729773,-0.000766990385216174,0.00498543750390513,-1.56657786180404
3.8,50.20522667,-1081.54543872,1.994350135,23051.8372703412,12.4675323546284,6.25034025001151,313.755479224173,-0.220435468932426,-0.0165977746325544,-0.000671116587064153,0.00517718510020918,-1.56638611420773
3.85,50.20522667,-1081.54543872,1.994350135,23051.8372703412,12.4675323546284,6.25034025001151,313.733323195544,-0.220348018586766,-0.0166097859123429,-0.000479368990760109,0.0052730588983612,-1.56629024040958
3.9,50.20522667,-1081.54543872,1.994350135,23051.8372703412,12.4675323546284,6.25034025001151,313.704836873021,-0.220318868471546,-0.0166578310314969,-0.000287621394456065,0.00546480649466524,-1.56619436661143
3.95,50.20522667,-1081.54543872,1.994350135,23051.5091863517,12.4392406411162,6.2504376784289,313.682680844393,-0.220318868471546,-0.0166458197517084,0,0.00556068029281726,-1.56609849281328
4,50.243969282,-1080.637035456,1.686196098,23051.5091863517,12.4392406411162,6.2504376784289,313.666855109658,-0.220377168701986,-0.0166217971921314,0.000383495192608087,0.00575242788912131,-1.56590674521697
4.05,50.243969282,-1080.637035456,1.686196098,23051.5091863517,12.4392406411162,6.2504376784289,313.644699081029,-0.220377168701986,-0.016681853591074,0.00105461177967224,0.00584830168727333,-1.56581087141882
4.1,50.243969282,-1080.637035456,1.686196098,23051.5091863517,12.4392406411162,6.2504376784289,313.6225430524,-0.220143967780226,-0.0167058761506511,0.00191747596304044,0.00594417548542535,-1.56571499762067
4.15,50.243969282,-1080.637035456,1.686196098,23051.5091863517,12.4392406411162,6.2504376784289,313.600387023771,-0.220348018586766,-0.016681853591074,0.00239684495380055,0.00613592308172939,-1.56571499762067
4.2,50.24657043,-1079.963940736,1.505887341,23051.5091863517,12.4392406411162,6.2504376784289,313.575065848196,-0.220202268010666,-0.0166938648708625,0.00345145673347278,0.00632767067803344,-1.56581087141882
4.25,50.24657043,-1079.963940736,1.505887341,23051.1811023622,12.4385061807389,6.25063253526369,313.556074966514,-0.220173117895446,-0.0167058761506511,0.00412257332053694,0.00642354447618546,-1.56581087141882
4.3,50.24657043,-1079.963940736,1.505887341,23051.1811023622,12.4385061807389,6.25063253526369,313.530753790938,-0.220056517434566,-0.0166938648708625,0.00469781610944907,0.00671116587064153,-1.56600261901512
4.35,50.24657043,-1079.963940736,1.505887341,23051.1811023622,12.4385061807389,6.25063253526369,313.508597762309,-0.220202268010666,-0.0166938648708625,0.00517718510020918,0.00680703966879355,-1.56600261901512
4.4,50.274015974,-1078.87624896,1.166468039,23051.1811023622,12.4385061807389,6.25063253526369,313.47694629284,-0.220027367319346,-0.0166217971921314,0.00546480649466524,0.00699878726509759,-1.56609849281328
4.45,50.274015974,-1078.87624896,1.166468039,23050.8530183727,12.4385061807389,6.25063253526369,313.454790264211,-0.219939916973686,-0.0166938648708625,0.00536893269651322,0.00709466106324961,-1.56619436661143
4.5,50.274015974,-1078.87624896,1.166468039,23050.8530183727,12.4385061807389,6.25063253526369,313.426303941688,-0.220056517434566,-0.0166217971921314,0.00508131130205716,0.00728640865955366,-1.56619436661143
4.55,50.274015974,-1078.87624896,1.166468039,23050.8530183727,12.4164498859398,6.25068499671921,313.391487325272,-0.220085667549786,-0.0165857633527658,0.00469781610944907,0.00738228245770568,-1.56619436661143
4.6,50.311156706,-1078.11222848,0.76304791,23050.8530183727,12.4164498859398,6.25068499671921,313.366166149696,-0.220056517434566,-0.0165737520729773,0.00421844711868896,0.0074781562558577,-1.56609849281328
4.65,50.311156706,-1078.11222848,0.76304791,23050.8530183727,12.4164498859398,6.25068499671921,313.34084497412,-0.219910766858466,-0.0166458197517084,0.00364320432977683,0.00757403005400972,-1.56600261901512
4.7,50.311156706,-1078.11222848,0.76304791,23050.8530183727,12.4164498859398,6.25068499671921,313.309193504651,-0.220027367319346,-0.0166698423112855,0.00297208774271268,0.00766990385216174,-1.56581087141882
4.75,50.311156706,-1078.11222848,0.76304791,23050.5249343832,12.4164498859398,6.25068499671921,313.290202622969,-0.220143967780226,-0.0167178874304396,0.00258859255010459,0.00776577765031377,-1.56571499762067
4.8,50.376444758,-1076.940933824,0.218328616,23050.5249343832,12.4164498859398,6.25068499671921,313.264881447393,-0.220114817665006,-0.016681853591074,0.00249271875195257,0.00776577765031377,-1.56561912382252
4.85,50.376444758,-1076.940933824,0.218328616,23050.5249343832,12.3959224678444,6.250879853554,313.242725418764,-0.219735866167146,-0.0167178874304396,0.00239684495380055,0.00795752524661781,-1.56561912382252
4.9,50.376444758,-1076.940933824,0.218328616,23050.5249343832,12.3959224678444,6.250879853554,313.217404243189,-0.220202268010666,-0.0167779438293822,0.00258859255010459,0.00795752524661781,-1.56571499762067
4.95,50.376444758,-1076.940933824,0.218328616,23050.1968503937,12.3959224678444,6.250879853554,313.188917920666,-0.219939916973686,-0.0168019663889592,0.00268446634825661,0.00805339904476983,-1.56581087141882
5,50.38074695,-1076.149818688,-0.057377816,23050.1968503937,12.3959224678444,6.250879853554,313.16359674509,-0.220406318817206,-0.0168380002283248,0.0030679615408647,0.00795752524661781,-1.56600261901512
5.05,50.38074695,-1076.149818688,-0.057377816,23050.1968503937,12.3777932877156,6.25097728197139,313.147771010355,-0.220056517434566,-0.0168259889485363,0.00335558293532076,0.00814927284292185,-1.56619436661143
5.1,50.38074695,-1076.149818688,-0.057377816,23050.1968503937,12.3777932877156,6.25097728197139,313.131945275621,-0.220173117895446,-0.0168620227879018,0.00412257332053694,0.00805339904476983,-1.56667373560219
5.15,50.38074695,-1076.149818688,-0.057377816,23050.1968503937,12.3777932877156,6.25097728197139,313.112954393939,-0.220114817665006,-0.0168620227879018,0.00450606851314502,0.0083410204392259,-1.5670572307948
5.2,50.39264663,-1074.940933248,-0.522407394,23050.1968503937,12.3777932877156,6.25097728197139,313.093963512257,-0.220318868471546,-0.0168019663889592,0.00517718510020918,0.0083410204392259,-1.56753659978556
5.25,50.39264663,-1074.940933248,-0.522407394,23050.1968503937,12.3777932877156,6.25097728197139,313.078137777522,-0.219998217204126,-0.0167779438293822,0.0052730588983612,0.00862864183368196,-1.56801596877632
5.3,50.39264663,-1074.940933248,-0.522407394,23050.1968503937,12.3777932877156,6.25097728197139,313.055981748893,-0.219969067088906,-0.0167058761506511,0.00517718510020918,0.00862864183368196,-1.56849533776708
5.35,50.39264663,-1074.940933248,-0.522407394,23050.1968503937,12.3713105507122,6.250879853554,313.030660573318,-0.220085667549786,-0.0166578310314969,0.00450606851314502,0.00891626322813803,-1.56887883295968
5.4,50.44381144,-1074.117231296,-0.805028608,23050.1968503937,12.3713105507122,6.250879853554,313.008504544689,-0.220056517434566,-0.0165857633527658,0.0030679615408647,0.00910801082444207,-1.56916645435414
5.45,50.44381144,-1074.117231296,-0.805028608,23050.5249343832,12.3713105507122,6.250879853554,312.983183369113,-0.219823316512806,-0.0165857633527658,0.00191747596304044,0.00929975842074612,-1.56935820195044
5.5,50.44381144,-1074.117231296,-0.805028608,23050.5249343832,12.3713105507122,6.250879853554,312.95469704659,-0.219735866167146,-0.0164656505548806,-0.000575242788912131,0.0096832536133542,-1.5694540757486
5.55,50.44381144,-1074.117231296,-0.805028608,23050.5249343832,12.3713105507122,6.250879853554,312.938871311856,-0.219765016282366,-0.0165377182336118,-0.00239684495380055,0.00977912741150622,-1.5694540757486
5.6,50.555233636,-1072.878688192,-1.323770748,23050.5249343832,12.3713105507122,6.250879853554,312.916715283227,-0.219765016282366,-0.0164656505548806,-0.00556068029281726,0.0102584964022663,-1.56926232815229
5.65,50.555233636,-1072.878688192,-1.323770748,23050.5249343832,12.3496514640763,6.2507824251366,312.894559254598,-0.219852466628026,-0.0164896731144577,-0.00757403005400972,0.0102584964022663,-1.56916645435414
5.7,50.555233636,-1072.878688192,-1.323770748,23050.5249343832,12.3496514640763,6.2507824251366,312.875568372916,-0.219969067088906,-0.0165136956740347,-0.0104502439985704,0.0104502439985704,-1.56887883295968
5.75,50.555233636,-1072.878688192,-1.323770748,23050.5249343832,12.3496514640763,6.2507824251366,312.856577491235,-0.219735866167146,-0.0165857633527658,-0.0119842247690027,0.0103543702004184,-1.56868708536338
5.8,50.540236988,-1072.00921824,-1.655764192,23050.5249343832,12.3496514640763,6.2507824251366,312.831256315659,-0.219706716051926,-0.0166458197517084,-0.0139017007320432,0.0103543702004184,-1.56839946396892
5.85,50.540236988,-1072.00921824,-1.655764192,23050.5249343832,12.3496514640763,6.2507824251366,312.815430580924,-0.219823316512806,-0.0166458197517084,-0.0146686911172593,0.0102584964022663,-1.56820771637262
5.9,50.540236988,-1072.00921824,-1.655764192,23050.5249343832,12.3496514640763,6.2507824251366,312.790109405348,-0.219881616743246,-0.0166097859123429,-0.0156274290987796,0.00997087500781027,-1.56811184257447
5.95,50.540236988,-1072.00921824,-1.655764192,23050.8530183727,12.3364911332346,6.25068499671921,312.76795337672,-0.219910766858466,-0.01663380847192,-0.0160109242913876,0.00977912741150622,-1.56801596877632
6,50.373954216,-1070.727348096,-1.981373,23050.8530183727,12.3364911332346,6.25068499671921,312.752127641985,-0.220085667549786,-0.0166938648708625,-0.0160109242913876,0.00929975842074612,-1.56792009497816
6.05,50.373954216,-1070.727348096,-1.981373,23050.8530183727,12.3364911332346,6.25068499671921,312.739467054197,-0.220143967780226,-0.0167178874304396,-0.0157233028969316,0.00901213702629005,-1.56801596877632
6.1,50.373954216,-1070.727348096,-1.981373,23050.8530183727,12.3364911332346,6.25068499671921,312.726806466409,-0.220289718356326,-0.0167058761506511,-0.0154356815024755,0.00853276803552994,-1.56801596877632
6.15,50.373954216,-1070.727348096,-1.981373,23050.8530183727,12.3364911332346,6.25068499671921,312.714145878621,-0.220289718356326,-0.0167539212698051,-0.0151480601080194,0.00853276803552994,-1.56811184257447
6.2,50.263863106,-1069.892173632,-2.013444926,23050.8530183727,12.3364911332346,6.25068499671921,312.701485290833,-0.220552069393306,-0.0167539212698051,-0.0146686911172593,0.0083410204392259,-1.56830359017077
6.25,50.263863106,-1069.892173632,-2.013444926,23051.5091863517,12.313895234893,6.2504376784289,312.688824703045,-0.220435468932426,-0.0167298987102281,-0.0144769435209553,0.0083410204392259,-1.56830359017077
6.3,50.263863106,-1069.892173632,-2.013444926,23051.5091863517,12.313895234893,6.2504376784289,312.679329262204,-0.220522919278086,-0.0167419099900166,-0.0144769435209553,0.00824514664107387,-1.56849533776708
6.35,50.263863106,-1069.892173632,-2.013444926,23051.5091863517,12.313895234893,6.2504376784289,312.66350352747,-0.220114817665006,-0.0167178874304396,-0.0140934483283472,0.00824514664107387,-1.56878295916153
6.4,50.159962118,-1068.667910144,-1.832005318,23051.5091863517,12.313895234893,6.2504376784289,312.650842939682,-0.220289718356326,-0.0166938648708625,-0.0139975745301952,0.00843689423737792,-1.56897470675784
6.45,50.159962118,-1068.667910144,-1.832005318,23051.8372703412,12.313895234893,6.2504376784289,312.625521764106,-0.220143967780226,-0.0166698423112855,-0.0139975745301952,0.00862864183368196,-1.56926232815229
6.5,50.159962118,-1068.667910144,-1.832005318,23051.8372703412,12.313895234893,6.2504376784289,312.603365735477,-0.220377168701986,-0.0166217971921314,-0.0141893221264992,0.00891626322813803,-1.56935820195044
6.55,50.159962118,-1068.667910144,-1.832005318,23051.8372703412,12.2955786924231,6.24995053634194,312.578044559902,-0.219939916973686,-0.0165737520729773,-0.0144769435209553,0.00910801082444207,-1.5696458233449
6.6,50.099361472,-1067.84372,-1.687653046,23051.8372703412,12.2955786924231,6.24995053634194,312.555888531273,-0.220202268010666,-0.0165977746325544,-0.0151480601080194,0.00958737981520218,-1.5696458233449
6.65,50.099361472,-1067.84372,-1.687653046,23051.8372703412,12.2955786924231,6.24995053634194,312.530567355697,-0.219677565936707,-0.01663380847192,-0.0161067980895397,0.00958737981520218,-1.5696458233449
6.7,50.099361472,-1067.84372,-1.687653046,23051.8372703412,12.2955786924231,6.24995053634194,312.498915886227,-0.219939916973686,-0.01663380847192,-0.0172572836673639,0.0101626226041143,-1.5696458233449
6.75,50.099361472,-1067.84372,-1.687653046,23052.4934383202,12.2955786924231,6.24995053634194,312.464099269811,-0.219881616743246,-0.0166458197517084,-0.0180242740525801,0.00997087500781027,-1.5694540757486
6.8,50.010476202,-1066.619822656,-1.754773725,23052.4934383202,12.2955786924231,6.24995053634194,312.435612947288,-0.219939916973686,-0.0167298987102281,-0.0185036430433402,0.0102584964022663,-1.56926232815229
6.85,50.010476202,-1066.619822656,-1.754773725,23052.4934383202,12.2955786924231,6.24995053634194,312.403961477818,-0.220114817665006,-0.0167058761506511,-0.0183118954470362,0.00997087500781027,-1.56907058055599
6.9,50.010476202,-1066.619822656,-1.754773725,23052.4934383202,12.2698875682059,6.24970321805163,312.375475155296,-0.220085667549786,-0.0166938648708625,-0.0181201478507321,0.0100667488059623,-1.56897470675784
6.95,50.010476202,-1066.619822656,-1.754773725,23053.1496062992,12.2698875682059,6.24970321805163,312.343823685826,-0.220231418125886,-0.0167659325495936,-0.0173531574655159,0.00977912741150622,-1.56897470675784
7,49.8894084,-1065.819065728,-1.782030476,23053.1496062992,12.2698875682059,6.24970321805163,312.312172216356,-0.220027367319346,-0.0167899551091707,-0.0170655360710599,0.00977912741150622,-1.56887883295968
7.05,49.8894084,-1065.819065728,-1.782030476,23053.1496062992,12.2698875682059,6.24970321805163,312.280520746887,-0.220143967780226,-0.0167779438293822,-0.0162026718876917,0.00949150601705016,-1.56887883295968
7.1,49.8894084,-1065.819065728,-1.782030476,23053.1496062992,12.2698875682059,6.24970321805163,312.24570413047,-0.220260568241106,-0.0167779438293822,-0.0155315553006275,0.00929975842074612,-1.56897470675784
7.15,49.8894084,-1065.819065728,-1.782030476,23053.4776902887,12.2698875682059,6.24970321805163,312.210887514054,-0.220464619047646,-0.0167419099900166,-0.0139975745301952,0.00901213702629005,-1.56907058055599
7.2,49.74754667,-1064.602979456,-1.500124387,23053.4776902887,12.2428249516515,6.24950836121685,312.176070897637,-0.220377168701986,-0.0167539212698051,-0.013134710346827,0.00891626322813803,-1.56916645435414
7.25,49.74754667,-1064.602979456,-1.500124387,23053.4776902887,12.2428249516515,6.24950836121685,312.14125428122,-0.220348018586766,-0.0167539212698051,-0.0116966033745467,0.00872451563183398,-1.56935820195044
7.3,49.74754667,-1064.602979456,-1.500124387,23053.4776902887,12.2428249516515,6.24950836121685,312.109602811751,-0.220202268010666,-0.0166938648708625,-0.0109296129893305,0.00872451563183398,-1.5694540757486
7.35,49.74754667,-1064.602979456,-1.500124387,23053.4776902887,12.2428249516515,6.24950836121685,312.074786195334,-0.220435468932426,-0.0166458197517084,-0.0104502439985704,0.008820389429986,-1.5696458233449
7.4,49.702934312,-1063.820163584,-1.311815765,23053.4776902887,12.2428249516515,6.24950836121685,312.039969578917,-0.220260568241106,-0.016681853591074,-0.0101626226041143,0.00872451563183398,-1.56974169714305
7.45,49.702934312,-1063.820163584,-1.311815765,23054.1338582677,12.2428249516515,6.24950836121685,312.005152962501,-0.220114817665006,-0.0167298987102281,-0.0104502439985704,0.00901213702629005,-1.56974169714305
7.5,49.702934312,-1063.820163584,-1.311815765,23054.1338582677,12.2247482329783,6.24916361450915,311.973501493031,-0.219910766858466,-0.0167659325495936,-0.0108337391911785,0.00891626322813803,-1.5696458233449
7.55,49.702934312,-1063.820163584,-1.311815765,23054.1338582677,12.2247482329783,6.24916361450915,311.941850023562,-0.220056517434566,-0.0167298987102281,-0.0111213605856345,0.00910801082444207,-1.56954994954675
7.6,49.651800014,-1062.620919936,-0.983064221,23054.1338582677,12.2247482329783,6.24916361450915,311.913363701039,-0.219969067088906,-0.0167419099900166,-0.0112172343837865,0.00891626322813803,-1.5694540757486
7.65,49.651800014,-1062.620919936,-0.983064221,23054.7900262467,12.2247482329783,6.24916361450915,311.888042525463,-0.220231418125886,-0.0167659325495936,-0.0113131081819386,0.00891626322813803,-1.56935820195044
7.7,49.651800014,-1062.620919936,-0.983064221,23054.7900262467,12.2247482329783,6.24916361450915,311.862721349887,-0.220027367319346,-0.0167659325495936,-0.0113131081819386,0.00872451563183398,-1.56926232815229
7.75,49.651800014,-1062.620919936,-0.983064221,23054.7900262467,12.2247482329783,6.24916361450915,311.837400174312,-0.219910766858466,-0.0167659325495936,-0.0112172343837865,0.00853276803552994,-1.56926232815229
7.8,49.585074084,-1061.8420096,-0.856271605,23054.7900262467,12.2026020042554,6.24886383476332,311.81840929263,-0.219998217204126,-0.0167659325495936,-0.0112172343837865,0.00824514664107387,-1.56916645435414
7.85,49.585074084,-1061.8420096,-0.856271605,23054.7900262467,12.2026020042554,6.24886383476332,311.796253264001,-0.220610369623746,-0.0167899551091707,-0.0108337391911785,0.00795752524661781,-1.56907058055599
7.9,49.585074084,-1061.8420096,-0.856271605,23054.7900262467,12.2026020042554,6.24886383476332,311.777262382319,-0.220348018586766,-0.0167779438293822,-0.0105461177967224,0.00766990385216174,-1.56907058055599
7.95,49.585074084,-1061.8420096,-0.856271605,23055.1181102362,12.2026020042554,6.24886383476332,311.761436647585,-0.220289718356326,-0.0167779438293822,-0.0101626226041143,0.00728640865955366,-1.56916645435414
8,49.460821592,-1060.60444288,-0.46875967,23055.1181102362,12.2026020042554,6.24886383476332,311.74561091285,-0.220318868471546,-0.0167659325495936,-0.00997087500781027,0.00709466106324961,-1.56926232815229
8.05,49.460821592,-1060.60444288,-0.46875967,23055.1181102362,12.2026020042554,6.24886383476332,311.732950325062,-0.220610369623746,-0.0167779438293822,-0.00949150601705016,0.00680703966879355,-1.56926232815229
8.1,49.460821592,-1060.60444288,-0.46875967,23055.1181102362,12.1994543169243,6.24876640634593,311.720289737274,-0.220522919278086,-0.0167899551091707,-0.00929975842074612,0.00671116587064153,-1.56935820195044
8.15,49.460821592,-1060.60444288,-0.46875967,23055.4461942257,12.1994543169243,6.24876640634593,311.707629149486,-0.220493769162866,-0.0167659325495936,-0.00910801082444207,0.00651941827433748,-1.56935820195044
8.2,49.41961895,-1059.800268608,-0.067864409,23055.4461942257,12.1994543169243,6.24876640634593,311.691803414751,-0.220552069393306,-0.0167779438293822,-0.00901213702629005,0.00651941827433748,-1.56935820195044
8.25,49.41961895,-1059.800268608,-0.067864409,23055.4461942257,12.1994543169243,6.24876640634593,311.679142826963,-0.220406318817206,-0.0168380002283248,-0.00901213702629005,0.00651941827433748,-1.5694540757486
8.3,49.41961895,-1059.800268608,-0.067864409,23055.4461942257,12.1994543169243,6.24876640634593,311.660151945282,-0.220348018586766,-0.0168139776687477,-0.00910801082444207,0.00690291346694557,-1.5694540757486
8.35,49.41961895,-1059.800268608,-0.067864409,23055.4461942257,12.1994543169243,6.24876640634593,311.637995916653,-0.220027367319346,-0.0168259889485363,-0.00901213702629005,0.00709466106324961,-1.5694540757486
8.4,49.375666414,-1058.613717952,0.489668018,23055.4461942257,12.1742128623258,6.24832423122084,311.619005034971,-0.220027367319346,-0.0168620227879018,-0.00901213702629005,0.00738228245770568,-1.5694540757486
8.45,49.375666414,-1058.613717952,0.489668018,23055.4461942257,12.1742128623258,6.24832423122084,311.590518712448,-0.220085667549786,-0.0169220791868444,-0.00872451563183398,0.00776577765031377,-1.56954994954675
8.5,49.375666414,-1058.613717952,0.489668018,23055.4461942257,12.1742128623258,6.24832423122084,311.565197536873,-0.220143967780226,-0.0169100679070559,-0.008820389429986,0.00805339904476983,-1.56954994954675
8.55,49.375666414,-1058.613717952,0.489668018,23055.4461942257,12.1742128623258,6.24832423122084,311.539876361297,-0.219677565936707,-0.0169100679070559,-0.00853276803552994,0.00824514664107387,-1.56954994954675
8.6,49.331576574,-1057.829803648,0.636758742,23055.4461942257,12.1742128623258,6.24832423122084,311.511390038774,-0.219240314208407,-0.0169461017464215,-0.00843689423737792,0.0083410204392259,-1.5696458233449
8.65,49.331576574,-1057.829803648,0.636758742,23055.4461942257,12.1742128623258,6.24832423122084,311.482903716252,-0.219386064784507,-0.016934090466633,-0.00814927284292185,0.00824514664107387,-1.5698375709412
8.7,49.331576574,-1057.829803648,0.636758742,23055.4461942257,12.1589840512379,6.24822680280344,311.457582540676,-0.219969067088906,-0.0169220791868444,-0.00786165144846579,0.00805339904476983,-1.5698375709412
8.75,49.331576574,-1057.829803648,0.636758742,23055.4461942257,12.1589840512379,6.24822680280344,311.429096218153,-0.220435468932426,-0.0169100679070559,-0.0074781562558577,0.00776577765031377,-1.57012519233566
8.8,49.209341688,-1056.534508224,0.573391039,23055.4461942257,12.1589840512379,6.24822680280344,311.397444748683,-0.219706716051926,-0.016934090466633,-0.0074781562558577,0.00738228245770568,-1.57031693993196
8.85,49.209341688,-1056.534508224,0.573391039,23055.4461942257,12.1589840512379,6.24822680280344,311.372123573108,-0.219794166397586,-0.0169100679070559,-0.00766990385216174,0.00690291346694557,-1.57060456132642
8.9,49.209341688,-1056.534508224,0.573391039,23055.4461942257,12.1589840512379,6.24822680280344,311.343637250585,-0.219910766858466,-0.0168500115081133,-0.00795752524661781,0.00651941827433748,-1.57079630892273
8.95,49.209341688,-1056.534508224,0.573391039,23055.4461942257,12.1589840512379,6.24822680280344,311.318316075009,-0.220464619047646,-0.0167419099900166,-0.00853276803552994,0.00613592308172939,-1.57117980411533
9,49.140045122,-1055.581435392,0.629822983,23055.4461942257,12.130789766143,6.24842165963823,311.289829752487,-0.220697819969406,-0.0165377182336118,-0.008820389429986,0.00575242788912131,-1.57137155171164
9.05,49.140045122,-1055.581435392,0.629822983,23055.4461942257,12.130789766143,6.24842165963823,311.264508576911,-0.220901870775946,-0.0164776618346691,-0.0096832536133542,0.0052730588983612,-1.57156329930794
9.1,49.140045122,-1055.581435392,0.629822983,23055.4461942257,12.130789766143,6.24842165963823,311.236022254388,-0.220960171006385,-0.0163575490367839,-0.0105461177967224,0.00517718510020918,-1.57156329930794
9.15,49.140045122,-1055.581435392,0.629822983,23055.4461942257,12.130789766143,6.24842165963823,311.210701078813,-0.221018471236825,-0.0163335264772069,-0.0120800985671547,0.00498543750390513,-1.57156329930794
9.2,49.032124178,-1054.169340032,1.144175209,23055.4461942257,12.130789766143,6.24842165963823,311.185379903237,-0.221222522043365,-0.0163095039176299,-0.0135182055394351,0.0052730588983612,-1.57137155171164
9.25,49.032124178,-1054.169340032,1.144175209,23055.4461942257,12.130789766143,6.24842165963823,311.163223874608,-0.221309972389025,-0.0163095039176299,-0.0154356815024755,0.00546480649466524,-1.57108393031718
9.3,49.032124178,-1054.169340032,1.144175209,23055.4461942257,12.0947937131631,6.24822680280344,311.137902699032,-0.221543173310785,-0.0163335264772069,-0.0166820408784518,0.00584830168727333,-1.57079630892273
9.35,49.032124178,-1054.169340032,1.144175209,23055.4461942257,12.0947937131631,6.24822680280344,311.10941637651,-0.221368272619465,-0.0164296167155151,-0.0182160216488841,0.00604004928357737,-1.57031693993196
9.4,48.948185666,-1053.267283264,1.409606725,23055.4461942257,12.0947937131631,6.24822680280344,311.090425494828,-0.221514023195565,-0.0164656505548806,-0.0191747596304044,0.0066152920724895,-1.56993344473936
9.45,48.948185666,-1053.267283264,1.409606725,23055.4461942257,12.0947937131631,6.24822680280344,311.061939172305,-0.221543173310785,-0.0164296167155151,-0.0199417500156205,0.00680703966879355,-1.56954994954675
9.5,48.948185666,-1053.267283264,1.409606725,23055.4461942257,12.0947937131631,6.24822680280344,311.036617996729,-0.221688923886885,-0.0164536392750921,-0.0205169928045327,0.00738228245770568,-1.56926232815229
9.55,48.948185666,-1053.267283264,1.409606725,23055.4461942257,12.0947937131631,6.24822680280344,311.011296821154,-0.221630623656445,-0.0163935828761495,-0.0206128666026847,0.0074781562558577,-1.56907058055599
9.6,48.68420347,-1051.941231744,1.3734214,23055.4461942257,12.0784332335347,6.24812937438605,310.979645351684,-0.221601473541225,-0.0164296167155151,-0.0206128666026847,0.00795752524661781,-1.56897470675784
9.65,48.68420347,-1051.941231744,1.3734214,23055.1181102362,12.0784332335347,6.24812937438605,310.944828735267,-0.221688923886885,-0.0164896731144577,-0.0201334976119246,0.00805339904476983,-1.56878295916153
9.7,48.68420347,-1051.941231744,1.3734214,23055.1181102362,12.0784332335347,6.24812937438605,310.916342412745,-0.221747224117325,-0.0165136956740347,-0.0199417500156205,0.00824514664107387,-1.56887883295968
9.75,48.68420347,-1051.941231744,1.3734214,23055.1181102362,12.0784332335347,6.24812937438605,310.887856090222,-0.221805524347765,-0.0164896731144577,-0.0195582548230124,0.00824514664107387,-1.56887883295968
9.8,48.50841621,-1051.071029504,1.091665964,23055.1181102362,12.0784332335347,6.24812937438605,310.856204620752,-0.221951274923865,-0.0164416279953036,-0.0192706334285564,0.00824514664107387,-1.56897470675784
9.85,48.50841621,-1051.071029504,1.091665964,23055.1181102362,12.0784332335347,6.24812937438605,310.830883445177,-0.221980425039085,-0.0165136956740347,-0.0188871382359483,0.00824514664107387,-1.56907058055599
9.9,48.50841621,-1051.071029504,1.091665964,23055.1181102362,12.0496019164799,6.24832423122084,310.802397122654,-0.221922124808645,-0.0164536392750921,-0.0186953906396442,0.00814927284292185,-1.56926232815229
9.95,48.50841621,-1051.071029504,1.091665964,23054.7900262467,12.0496019164799,6.24832423122084,310.767580506237,-0.221892974693425,-0.0164776618346691,-0.0185995168414922,0.00805339904476983,-1.56935820195044
10,48.294992398,-1049.738387392,0.83009803,23054.7900262467,12.0496019164799,6.24832423122084,310.732763889821,-0.222155325730405,-0.0164896731144577,-0.0186953906396442,0.00805339904476983,-1.56954994954675
10.05,48.294992398,-1049.738387392,0.83009803,23054.7900262467,12.0496019164799,6.24832423122084,310.697947273404,-0.222126175615185,-0.0164536392750921,-0.0186953906396442,0.00795752524661781,-1.56974169714305
10.1,48.294992398,-1049.738387392,0.83009803,23054.7900262467,12.0496019164799,6.24832423122084,310.666295803935,-0.222184475845625,-0.016405594155938,-0.0187912644377963,0.00795752524661781,-1.57002931853751
10.15,48.294992398,-1049.738387392,0.83009803,23054.4619422572,12.0496019164799,6.24832423122084,310.634644334465,-0.222242776076064,-0.0163695603165724,-0.0190788858322523,0.00786165144846579,-1.57022106613381
10.2,48.163752658,-1048.862570944,0.693326083,23054.4619422572,12.0256345258012,6.3012728288272,310.602992864995,-0.221805524347765,-0.0163455377569954,-0.0192706334285564,0.00786165144846579,-1.57050868752827
10.25,48.163752658,-1048.862570944,0.693326083,23054.4619422572,12.0256345258012,6.3012728288272,310.571341395526,-0.222009575154305,-0.0163215151974184,-0.0200376238137726,0.00786165144846579,-1.57070043512457
10.3,48.163752658,-1048.862570944,0.693326083,23054.4619422572,12.0256345258012,6.3012728288272,310.542855073003,-0.222126175615185,-0.0162974926378413,-0.0209004879971408,0.00786165144846579,-1.57079630892273
10.35,48.163752658,-1048.862570944,0.693326083,23054.4619422572,12.0256345258012,6.3012728288272,310.511203603533,-0.222242776076064,-0.0163095039176299,-0.0217633521805089,0.00786165144846579,-1.57098805651903
10.4,47.976519584,-1047.572279488,0.49816561,23054.4619422572,12.0256345258012,6.3012728288272,310.479552134064,-0.222242776076064,-0.0162974926378413,-0.0223385949694211,0.00776577765031377,-1.57098805651903
10.45,47.976519584,-1047.572279488,0.49816561,23054.4619422572,12.0256345258012,6.3012728288272,310.447900664594,-0.222417676767384,-0.0162374362388987,-0.0228179639601812,0.00776577765031377,-1.57089218272088
10.5,47.976519584,-1047.572279488,0.49816561,23054.4619422572,12.0106080660417,6.43732786646995,310.419414342071,-0.222388526652164,-0.0161653685601676,-0.0232014591527893,0.00786165144846579,-1.57089218272088
10.55,47.976519584,-1047.572279488,0.49816561,23054.4619422572,12.0106080660417,6.43732786646995,310.387762872602,-0.222097025499965,-0.0162254249591102,-0.0234890805472453,0.00786165144846579,-1.57079630892273
10.6,47.83774338,-1046.742963328,0.411030966,23054.4619422572,12.0106080660417,6.43732786646995,310.356111403132,-0.222330226421724,-0.0161773798399561,-0.0237767019417014,0.00776577765031377,-1.57060456132642
10.65,47.83774338,-1046.742963328,0.411030966,23054.4619422572,12.0106080660417,6.43732786646995,310.324459933662,-0.222388526652164,-0.0162014023995332,-0.0241601971343095,0.00795752524661781,-1.57050868752827
10.7,47.83774338,-1046.742963328,0.411030966,23054.4619422572,12.0106080660417,6.43732786646995,310.299138758087,-0.222359376536944,-0.0162254249591102,-0.0241601971343095,0.00786165144846579,-1.57031693993196
10.75,47.83774338,-1046.742963328,0.411030966,23054.4619422572,12.0106080660417,6.43732786646995,310.267487288617,-0.222155325730405,-0.0162254249591102,-0.0239684495380054,0.00805339904476983,-1.56993344473936
10.8,47.591698426,-1045.4997824,0.352325878,23054.4619422572,11.9810872555716,6.5090801486332,310.245331259988,-0.222388526652164,-0.0162254249591102,-0.0236808281435494,0.00805339904476983,-1.5698375709412
10.85,47.591698426,-1045.4997824,0.352325878,23054.4619422572,11.9810872555716,6.5090801486332,310.220010084412,-0.222184475845625,-0.0162374362388987,-0.0234890805472453,0.00795752524661781,-1.56974169714305
10.9,47.591698426,-1045.4997824,0.352325878,23054.4619422572,11.9810872555716,6.5090801486332,310.201019202731,-0.222271926191284,-0.0162374362388987,-0.0228179639601812,0.00795752524661781,-1.5696458233449
10.95,47.591698426,-1045.4997824,0.352325878,23054.1338582677,11.9810872555716,6.5090801486332,310.182028321049,-0.222009575154305,-0.0162734700782643,-0.0223385949694211,0.00795752524661781,-1.5696458233449
11,47.374186006,-1044.674249728,0.335752141,23054.1338582677,11.9810872555716,6.5090801486332,310.15987229242,-0.222417676767384,-0.0162494475186872,-0.0214757307860529,0.00776577765031377,-1.56974169714305
11.05,47.374186006,-1044.674249728,0.335752141,23054.1338582677,11.9810872555716,6.5090801486332,310.144046557685,-0.222184475845625,-0.0162614587984757,-0.0207087404008367,0.00766990385216174,-1.56974169714305
11.1,47.374186006,-1044.674249728,0.335752141,23054.1338582677,11.9649740942335,6.5454284428145,310.125055676003,-0.222330226421724,-0.0163335264772069,-0.0195582548230124,0.0074781562558577,-1.5698375709412
11.15,47.374186006,-1044.674249728,0.335752141,23054.1338582677,11.9649740942335,6.5454284428145,310.112395088216,-0.222271926191284,-0.0163575490367839,-0.0185036430433402,0.0074781562558577,-1.57002931853751
11.2,47.127435462,-1043.440710592,0.137300186,23054.1338582677,11.9649740942335,6.5454284428145,310.096569353481,-0.222534277228264,-0.0163575490367839,-0.0171614098692119,0.00738228245770568,-1.57022106613381
11.25,47.127435462,-1043.440710592,0.137300186,23054.1338582677,11.9649740942335,6.5454284428145,310.083908765693,-0.222534277228264,-0.0163335264772069,-0.0162026718876917,0.00738228245770568,-1.57031693993196
11.3,47.127435462,-1043.440710592,0.137300186,23054.1338582677,11.9649740942335,6.5454284428145,310.071248177905,-0.222650877689144,-0.0163455377569954,-0.0147645649154114,0.00738228245770568,-1.57070043512457
11.35,47.127435462,-1043.440710592,0.137300186,23054.1338582677,11.9649740942335,6.5454284428145,310.061752737064,-0.222475976997824,-0.0163455377569954,-0.0140934483283472,0.00757403005400972,-1.57089218272088
11.4,47.001554392,-1042.535114432,0.078545516,23054.1338582677,11.9609495511458,6.56286812952787,310.045927002329,-0.222913228726124,-0.0162974926378413,-0.0128470889523709,0.00766990385216174,-1.57117980411533
11.45,47.001554392,-1042.535114432,0.078545516,23054.1338582677,11.9609495511458,6.56286812952787,310.033266414541,-0.222796628265244,-0.0162614587984757,-0.0121759723653068,0.00786165144846579,-1.57146742550979
11.5,47.001554392,-1042.535114432,0.078545516,23054.1338582677,11.9609495511458,6.56286812952787,310.020605826754,-0.222709177919584,-0.0162494475186872,-0.0111213605856345,0.00805339904476983,-1.57165917310609
11.55,47.001554392,-1042.535114432,0.078545516,23054.1338582677,11.9609495511458,6.56286812952787,310.004780092019,-0.222388526652164,-0.0162254249591102,-0.0106419915948744,0.0083410204392259,-1.57175504690425
11.6,46.91847403,-1041.021475136,0.005844955,23054.1338582677,11.9609495511458,6.56286812952787,309.985789210337,-0.222563427343484,-0.0162134136793217,-0.00987500120965825,0.00853276803552994,-1.57194679450055
11.65,46.91847403,-1041.021475136,0.005844955,23054.1338582677,11.9609495511458,6.56286812952787,309.973128622549,-0.222475976997824,-0.0161893911197446,-0.00958737981520218,0.008820389429986,-1.57213854209685
11.7,46.91847403,-1041.021475136,0.005844955,23054.1338582677,11.9357980304711,6.57278334462104,309.954137740867,-0.222650877689144,-0.0161773798399561,-0.00901213702629005,0.00901213702629005,-1.57213854209685
11.75,46.91847403,-1041.021475136,0.005844955,23054.1338582677,11.9357980304711,6.57278334462104,309.935146859186,-0.222592577458704,-0.0161773798399561,-0.00862864183368196,0.00920388462259409,-1.57223441589501
11.8,46.872187326,-1040.004937344,-0.157699365,23054.1338582677,11.9357980304711,6.57278334462104,309.916155977504,-0.222563427343484,-0.0162014023995332,-0.00824514664107387,0.00929975842074612,-1.57233028969316
11.85,46.872187326,-1040.004937344,-0.157699365,23054.1338582677,11.9357980304711,6.57278334462104,309.900330242769,-0.222475976997824,-0.0162014023995332,-0.00805339904476983,0.00958737981520218,-1.57233028969316
11.9,46.872187326,-1040.004937344,-0.157699365,23054.1338582677,11.9357980304711,6.57278334462104,309.884504508034,-0.222680027804364,-0.0161653685601676,-0.00757403005400972,0.00949150601705016,-1.57242616349131
11.95,46.872187326,-1040.004937344,-0.157699365,23054.1338582677,11.9357980304711,6.57278334462104,309.865513626352,-0.222592577458704,-0.0161773798399561,-0.0074781562558577,0.0096832536133542,-1.57252203728946
12,46.812231246,-1038.521688,-0.424339919,23054.1338582677,11.9089377652451,6.57730252428935,309.84652274467,-0.222534277228264,-0.0161893911197446,-0.00709466106324961,0.00958737981520218,-1.57252203728946
12.05,46.812231246,-1038.521688,-0.424339919,23054.1338582677,11.9089377652451,6.57730252428935,309.827531862989,-0.222388526652164,-0.0161653685601676,-0.00709466106324961,0.0096832536133542,-1.57252203728946
12.1,46.812231246,-1038.521688,-0.424339919,23054.1338582677,11.9089377652451,6.57730252428935,309.808540981307,-0.222650877689144,-0.0161413460005905,-0.00719053486140163,0.00949150601705016,-1.57242616349131
12.15,46.812231246,-1038.521688,-0.424339919,23054.1338582677,11.9089377652451,6.57730252428935,309.786384952678,-0.222709177919584,-0.016153357280379,-0.00709466106324961,0.00949150601705016,-1.57233028969316
12.2,46.812231246,-1038.521688,-0.424339919,23054.1338582677,11.9089377652451,6.57730252428935,309.761063777102,-0.222767478150024,-0.0162014023995332,-0.00719053486140163,0.00939563221889814,-1.57213854209685
12.25,46.764090938,-1037.486232768,-0.693181151,23054.1338582677,11.9089377652451,6.57730252428935,309.738907748474,-0.222767478150024,-0.0161893911197446,-0.00690291346694557,0.00939563221889814,-1.5720426682987
12.3,46.764090938,-1037.486232768,-0.693181151,23054.1338582677,11.8856523734882,6.57754984257966,309.713586572898,-0.222680027804364,-0.0162134136793217,-0.00632767067803344,0.00929975842074612,-1.57175504690425
12.35,46.764090938,-1037.486232768,-0.693181151,23054.1338582677,11.8856523734882,6.57754984257966,309.688265397322,-0.222680027804364,-0.0162974926378413,-0.00575242788912131,0.00929975842074612,-1.57165917310609
12.4,46.764090938,-1037.486232768,-0.693181151,23054.1338582677,11.8856523734882,6.57754984257966,309.666109368693,-0.222738328034804,-0.0163335264772069,-0.00460194231129705,0.00920388462259409,-1.57156329930794
12.45,46.74884638,-1035.74631648,-0.833807145,23054.1338582677,11.8856523734882,6.57754984257966,309.643953340065,-0.222971528956564,-0.0162974926378413,-0.00383495192608087,0.00920388462259409,-1.57156329930794
12.5,46.74884638,-1035.74631648,-0.833807145,23054.4619422572,11.8856523734882,6.57754984257966,309.618632164489,-0.223000679071784,-0.0163695603165724,-0.00239684495380055,0.00910801082444207,-1.57146742550979
12.55,46.74884638,-1035.74631648,-0.833807145,23054.4619422572,11.8856523734882,6.57754984257966,309.590145841966,-0.222971528956564,-0.0163215151974184,-0.00162985456858437,0.00920388462259409,-1.57156329930794
12.6,46.74884638,-1035.74631648,-0.833807145,23054.4619422572,11.858986965097,6.57548885682711,309.564824666391,-0.222475976997824,-0.0163695603165724,-0.000287621394456065,0.00910801082444207,-1.57146742550979
12.65,46.702616886,-1034.634947392,-0.903811208,23054.4619422572,11.858986965097,6.57548885682711,309.536338343868,-0.222650877689144,-0.0163575490367839,0.000383495192608087,0.00929975842074612,-1.57156329930794
12.7,46.702616886,-1034.634947392,-0.903811208,23054.4619422572,11.858986965097,6.57548885682711,309.507852021345,-0.222796628265244,-0.0163335264772069,0.00134223317412831,0.00929975842074612,-1.57165917310609
12.75,46.702616886,-1034.634947392,-0.903811208,23054.4619422572,11.858986965097,6.57548885682711,309.482530845769,-0.222971528956564,-0.0163335264772069,0.00182160216488841,0.00949150601705016,-1.57175504690425
12.8,46.702616886,-1034.634947392,-0.903811208,23054.4619422572,11.858986965097,6.57548885682711,309.457209670194,-0.223088129417444,-0.0163335264772069,0.00230097115564852,0.00958737981520218,-1.57194679450055
12.85,46.720397754,-1033.011953088,-0.887407194,23054.4619422572,11.858986965097,6.57548885682711,309.431888494618,-0.223000679071784,-0.0162854813580528,0.00239684495380055,0.0096832536133542,-1.5720426682987
12.9,46.720397754,-1033.011953088,-0.887407194,23054.4619422572,11.8338879058778,6.57170413753607,309.403402172095,-0.222680027804364,-0.0162374362388987,0.00249271875195257,0.0096832536133542,-1.57213854209685
12.95,46.720397754,-1033.011953088,-0.887407194,23054.4619422572,11.8338879058778,6.57170413753607,309.371750702626,-0.222534277228264,-0.0162374362388987,0.0022050973574965,0.00987500120965825,-1.57233028969316
13,46.720397754,-1033.011953088,-0.887407194,23054.7900262467,11.8338879058778,6.57170413753607,309.343264380103,-0.222796628265244,-0.0162134136793217,0.00172572836673639,0.0096832536133542,-1.57242616349131
13.05,46.799355182,-1031.969174976,-0.960561621,23054.7900262467,11.8338879058778,6.57170413753607,309.31477805758,-0.223117279532664,-0.0162494475186872,0.00124635937597628,0.00977912741150622,-1.57252203728946
13.1,46.799355182,-1031.969174976,-0.960561621,23054.7900262467,11.8338879058778,6.57170413753607,309.289456882005,-0.223029829187004,-0.0162014023995332,0.000575242788912131,0.00958737981520218,-1.57261791108761
13.15,46.799355182,-1031.969174976,-0.960561621,23054.7900262467,11.8338879058778,6.57170413753607,309.260970559482,-0.222709177919584,-0.0162254249591102,-9.58737981520218e-05,0.0096832536133542,-1.57261791108761
13.2,46.799355182,-1031.969174976,-0.960561621,23055.1181102362,11.8056411593274,6.56679524419818,309.229319090012,-0.222738328034804,-0.0161413460005905,-0.000958737981520218,0.00949150601705016,-1.57271378488577
13.25,46.83227763,-1030.411720448,-1.028454635,23055.1181102362,11.8056411593274,6.56679524419818,309.207163061383,-0.223175579763104,-0.0161413460005905,-0.00162985456858437,0.00949150601705016,-1.57271378488577
13.3,46.83227763,-1030.411720448,-1.028454635,23055.1181102362,11.8056411593274,6.56679524419818,309.175511591914,-0.223233879993544,-0.016153357280379,-0.00268446634825661,0.00939563221889814,-1.57261791108761
13.35,46.83227763,-1030.411720448,-1.028454635,23055.1181102362,11.8056411593274,6.56679524419818,309.147025269391,-0.223117279532664,-0.0161773798399561,-0.00325970913716874,0.00929975842074612,-1.57261791108761
13.4,46.83227763,-1030.411720448,-1.028454635,23055.1181102362,11.8056411593274,6.56679524419818,309.115373799921,-0.222767478150024,-0.0161893911197446,-0.00421844711868896,0.00910801082444207,-1.57252203728946
13.45,46.84232752,-1029.387371584,-1.103071731,23055.1181102362,11.8056411593274,6.56679524419818,309.086887477399,-0.222942378841344,-0.0161773798399561,-0.00488956370575311,0.00910801082444207,-1.57242616349131
13.5,46.84232752,-1029.387371584,-1.103071731,23055.4461942257,11.7789232894808,6.56060479244689,309.058401154876,-0.223088129417444,-0.0161773798399561,-0.00556068029281726,0.00910801082444207,-1.57233028969316
13.55,46.84232752,-1029.387371584,-1.103071731,23055.4461942257,11.7789232894808,6.56060479244689,309.026749685406,-0.223321330339204,-0.0162014023995332,-0.00604004928357737,0.00901213702629005,-1.57233028969316
13.6,46.84232752,-1029.387371584,-1.103071731,23055.4461942257,11.7789232894808,6.56060479244689,309.001428509831,-0.223146429647884,-0.0162614587984757,-0.0066152920724895,0.008820389429986,-1.57223441589501
13.65,46.822311648,-1027.866775552,-0.927763128,23055.4461942257,11.7789232894808,6.56060479244689,308.969777040361,-0.222971528956564,-0.0162854813580528,-0.00690291346694557,0.008820389429986,-1.57233028969316
13.7,46.822311648,-1027.866775552,-0.927763128,23055.7742782152,11.7789232894808,6.56060479244689,308.938125570891,-0.222767478150024,-0.0162494475186872,-0.00738228245770568,0.00872451563183398,-1.57223441589501
13.75,46.822311648,-1027.866775552,-0.927763128,23055.7742782152,11.7789232894808,6.56060479244689,308.909639248369,-0.223029829187004,-0.0162374362388987,-0.0074781562558577,0.00872451563183398,-1.57233028969316
13.8,46.822311648,-1027.866775552,-0.927763128,23055.7742782152,11.7558402490522,6.55338759506615,308.881152925846,-0.223233879993544,-0.0162134136793217,-0.00776577765031377,0.00853276803552994,-1.57233028969316
13.85,46.798210982,-1026.881237952,-0.826728361,23055.7742782152,11.7558402490522,6.55338759506615,308.852666603323,-0.223321330339204,-0.0162254249591102,-0.00786165144846579,0.00853276803552994,-1.57242616349131
13.9,46.798210982,-1026.881237952,-0.826728361,23055.7742782152,11.7558402490522,6.55338759506615,308.824180280801,-0.223379630569644,-0.0162134136793217,-0.00843689423737792,0.00853276803552994,-1.57252203728946
13.95,46.798210982,-1026.881237952,-0.826728361,23055.7742782152,11.7558402490522,6.55338759506615,308.795693958278,-0.223263030108764,-0.0161893911197446,-0.00872451563183398,0.00853276803552994,-1.57261791108761
14,46.798210982,-1026.881237952,-0.826728361,23056.1023622047,11.7558402490522,6.55338759506615,308.764042488808,-0.223000679071784,-0.0161653685601676,-0.00939563221889814,0.00843689423737792,-1.57261791108761
14.05,46.735787244,-1025.431795904,-0.600771745,23056.1023622047,11.7558402490522,6.55338759506615,308.735556166286,-0.223029829187004,-0.0161173234410135,-0.00997087500781027,0.00853276803552994,-1.57271378488577
14.1,46.735787244,-1025.431795904,-0.600771745,23056.1023622047,11.7327572086237,6.5456757611048,308.707069843763,-0.223379630569644,-0.016105312161225,-0.0109296129893305,0.00843689423737792,-1.57271378488577
14.15,46.735787244,-1025.431795904,-0.600771745,23056.1023622047,11.7327572086237,6.5456757611048,308.675418374293,-0.223408780684864,-0.016129334720802,-0.0116007295763946,0.00853276803552994,-1.57271378488577
