time_s,north_vel_fps,east_vel_fps,down_vel_fps,height_ft,total_pres_psi,static_pres_psi,total_temp_K,aoa_rad,aos_rad,roll_angle_rad,pitch_angle_rad,true_heading_rad
0,29.733841022,-1089.176856064,1.541868617,21462.2703412073,13.3866870333029,6.66409625519938,317.803702169341,-0.220814420430286,-0.0166217971921314,0.00920388462259409,0.00488956370575311,-1.588628835379
0.05,29.733841022,-1089.176856064,1.541868617,21462.2703412073,13.3605537339606,6.66399133228834,317.765720405978,-0.220843570545506,-0.0166097859123429,0.00872451563183398,0.00469781610944907,-1.58853296158085
0.1,29.733841022,-1089.176856064,1.541868617,21462.2703412073,13.3605537339606,6.66399133228834,317.730903789561,-0.220843570545506,-0.01663380847192,0.00853276803552994,0.00450606851314502,-1.58853296158085
0.15,29.733841022,-1089.176856064,1.541868617,21462.2703412073,13.3605537339606,6.66399133228834,317.696087173145,-0.220843570545506,-0.01663380847192,0.0083410204392259,0.00421844711868896,-1.58853296158085
0.2,29.796648067,-1088.26662208,1.801342665,21462.2703412073,13.3605537339606,6.66399133228834,317.664435703675,-0.220901870775946,-0.01663380847192,0.00814927284292185,0.00412257332053694,-1.58853296158085
0.25,29.796648067,-1088.26662208,1.801342665,21462.2703412073,13.3605537339606,6.66399133228834,317.629619087258,-0.220960171006385,-0.01663380847192,0.00814927284292185,0.00393082572423289,-1.58853296158085
0.3,29.796648067,-1088.26662208,1.801342665,21462.2703412073,13.3605537339606,6.66399133228834,317.591637323895,-0.220989321121605,-0.0165977746325544,0.00814927284292185,0.00402669952238492,-1.58853296158085
0.35,29.796648067,-1088.26662208,1.801342665,21462.2703412073,13.3377629787842,6.66409625519938,317.559985854425,-0.220960171006385,-0.0165977746325544,0.00824514664107387,0.00421844711868896,-1.58853296158085
0.4,29.905070552,-1086.89297184,2.207688132,21462.2703412073,13.3377629787842,6.66409625519938,317.528334384955,-0.220785270315066,-0.0166097859123429,0.00824514664107387,0.00431432091684098,-1.58853296158085
0.45,29.905070552,-1086.89297184,2.207688132,21462.2703412073,13.3377629787842,6.66409625519938,317.493517768539,-0.220610369623746,-0.0166097859123429,0.00824514664107387,0.00488956370575311,-1.5884370877827
0.5,29.905070552,-1086.89297184,2.207688132,21462.2703412073,13.3377629787842,6.66409625519938,317.452370858228,-0.220552069393306,-0.0165977746325544,0.00824514664107387,0.00517718510020918,-1.58834121398454
0.55,29.905070552,-1086.89297184,2.207688132,21461.9422572178,13.3377629787842,6.66409625519938,317.408058800971,-0.220318868471546,-0.0166097859123429,0.00814927284292185,0.00584830168727333,-1.58824534018639
0.6,30.009474988,-1085.986521344,2.332217139,21461.9422572178,13.3377629787842,6.66409625519938,317.36691189066,-0.220318868471546,-0.0166217971921314,0.0083410204392259,0.00623179687988142,-1.58805359259009
0.65,30.009474988,-1085.986521344,2.332217139,21461.9422572178,13.3011748608063,6.66409625519938,317.332095274243,-0.220289718356326,-0.0166458197517084,0.0083410204392259,0.00671116587064153,-1.58805359259009
0.7,30.009474988,-1085.986521344,2.332217139,21461.9422572178,13.3011748608063,6.66409625519938,317.290948363933,-0.220231418125886,-0.0166578310314969,0.00843689423737792,0.00690291346694557,-1.58795771879194
0.75,30.009474988,-1085.986521344,2.332217139,21461.6141732283,13.3011748608063,6.66409625519938,317.252966600569,-0.219910766858466,-0.0166698423112855,0.00872451563183398,0.00719053486140163,-1.58795771879194
0.8,30.180016091,-1084.562221184,2.118512998,21461.6141732283,13.3011748608063,6.66409625519938,317.211819690259,-0.220114817665006,-0.0166578310314969,0.00872451563183398,0.00719053486140163,-1.58795771879194
0.85,30.180016091,-1084.562221184,2.118512998,21461.6141732283,13.3011748608063,6.66409625519938,317.170672779948,-0.220143967780226,-0.0165977746325544,0.00872451563183398,0.00728640865955366,-1.58795771879194
0.9,30.180016091,-1084.562221184,2.118512998,21461.6141732283,13.3011748608063,6.66409625519938,317.129525869638,-0.220202268010666,-0.0165617407931888,0.00853276803552994,0.00709466106324961,-1.58805359259009
0.95,30.180016091,-1084.562221184,2.118512998,21461.6141732283,13.2776946122145,6.66433607899604,317.094709253221,-0.220173117895446,-0.0165497295134002,0.00814927284292185,0.00690291346694557,-1.58805359259009
1,30.215011448,-1083.676030656,1.775821284,21461.6141732283,13.2776946122145,6.66433607899604,317.059892636804,-0.220318868471546,-0.0165617407931888,0.00766990385216174,0.00671116587064153,-1.58795771879194
1.05,30.215011448,-1083.676030656,1.775821284,21461.2860892388,13.2776946122145,6.66433607899604,317.021910873441,-0.220318868471546,-0.0165617407931888,0.00671116587064153,0.0066152920724895,-1.58795771879194
1.1,30.215011448,-1083.676030656,1.775821284,21461.2860892388,13.2776946122145,6.66433607899604,316.987094257024,-0.220464619047646,-0.0166217971921314,0.00604004928357737,0.00642354447618546,-1.58776597119563
1.15,30.215011448,-1083.676030656,1.775821284,21461.2860892388,13.2776946122145,6.66433607899604,316.952277640608,-0.220377168701986,-0.01663380847192,0.00498543750390513,0.00651941827433748,-1.58747834980118
1.2,30.302849775,-1082.32715616,1.407991496,21461.2860892388,13.2776946122145,6.66433607899604,316.920626171138,-0.220406318817206,-0.0165977746325544,0.00450606851314502,0.00651941827433748,-1.58738247600302
1.25,30.302849775,-1082.32715616,1.407991496,21460.6299212598,13.2459704206126,6.66477825412113,316.888974701668,-0.220260568241106,-0.0165857633527658,0.00383495192608087,0.00680703966879355,-1.58719072840672
1.3,30.302849775,-1082.32715616,1.407991496,21460.6299212598,13.2459704206126,6.66477825412113,316.854158085252,-0.220348018586766,-0.0166217971921314,0.00354733053162481,0.00680703966879355,-1.58699898081042
1.35,30.302849775,-1082.32715616,1.407991496,21460.6299212598,13.2459704206126,6.66477825412113,316.819341468835,-0.220173117895446,-0.0166698423112855,0.00297208774271268,0.0074781562558577,-1.58680723321411
1.4,30.33989325,-1081.441453824,1.234595614,21460.6299212598,13.2459704206126,6.66477825412113,316.784524852419,-0.220289718356326,-0.0166698423112855,0.00278034014640863,0.00766990385216174,-1.58661548561781
1.45,30.33989325,-1081.441453824,1.234595614,21460.6299212598,13.2459704206126,6.66477825412113,316.752873382949,-0.219998217204126,-0.01663380847192,0.00268446634825661,0.00766990385216174,-1.58661548561781
1.5,30.33989325,-1081.441453824,1.234595614,21460.6299212598,13.2459704206126,6.66477825412113,316.718056766532,-0.219910766858466,-0.0166698423112855,0.00258859255010459,0.0083410204392259,-1.58651961181966
1.55,30.33989325,-1081.441453824,1.234595614,21460.3018372703,13.2193949461452,6.66477825412113,316.683240150116,-0.219823316512806,-0.016681853591074,0.00258859255010459,0.00862864183368196,-1.5864237380215
1.6,30.404298361,-1080.020815104,0.730832959,21460.3018372703,13.2193949461452,6.66477825412113,316.645258386752,-0.219881616743246,-0.0166698423112855,0.00249271875195257,0.00910801082444207,-1.5864237380215
1.65,30.404298361,-1080.020815104,0.730832959,21460.3018372703,13.2193949461452,6.66477825412113,316.613606917282,-0.219735866167146,-0.0166458197517084,0.00258859255010459,0.00920388462259409,-1.58632786422335
1.7,30.404298361,-1080.020815104,0.730832959,21460.3018372703,13.2193949461452,6.66477825412113,316.575625153919,-0.219765016282366,-0.0166938648708625,0.00249271875195257,0.00949150601705016,-1.58632786422335
1.75,30.404298361,-1080.020815104,0.730832959,21460.3018372703,13.2193949461452,6.66477825412113,316.540808537502,-0.219531815360607,-0.0166578310314969,0.00239684495380055,0.00929975842074612,-1.5864237380215
1.8,30.443031438,-1079.059565056,0.210643406,21460.3018372703,13.2193949461452,6.66477825412113,316.505991921086,-0.219852466628026,-0.0166698423112855,0.00230097115564852,0.00929975842074612,-1.5864237380215
1.85,30.443031438,-1079.059565056,0.210643406,21460.3018372703,13.2193949461452,6.66477825412113,316.471175304669,-0.220027367319346,-0.0166938648708625,0.0022050973574965,0.00901213702629005,-1.5864237380215
1.9,30.443031438,-1079.059565056,0.210643406,21460.3018372703,13.1865390860027,6.66487568253853,316.439523835199,-0.220027367319346,-0.0167779438293822,0.00191747596304044,0.008820389429986,-1.5864237380215
1.95,30.443031438,-1079.059565056,0.210643406,21460.3018372703,13.1865390860027,6.66487568253853,316.40787236573,-0.219910766858466,-0.0168259889485363,0.00162985456858437,0.00853276803552994,-1.58651961181966
2,30.473873349,-1077.62769792,-0.32958681,21460.3018372703,13.1865390860027,6.66487568253853,316.382551190154,-0.219998217204126,-0.0167659325495936,0.00115048557782426,0.00853276803552994,-1.58661548561781
2.05,30.473873349,-1077.62769792,-0.32958681,21459.9737532808,13.1865390860027,6.66487568253853,316.363560308472,-0.220318868471546,-0.0167539212698051,0.00115048557782426,0.00843689423737792,-1.58680723321411
2.1,30.473873349,-1077.62769792,-0.32958681,21459.9737532808,13.1865390860027,6.66487568253853,316.341404279843,-0.219969067088906,-0.0166578310314969,0.00105461177967224,0.00853276803552994,-1.58719072840672
2.15,30.473873349,-1077.62769792,-0.32958681,21459.9737532808,13.1865390860027,6.66487568253853,316.316083104268,-0.219939916973686,-0.0166698423112855,0.00105461177967224,0.008820389429986,-1.58747834980118
2.2,30.462671631,-1076.694885056,-0.6207285,21459.9737532808,13.1543202578202,6.66512300082883,316.300257369533,-0.219590115591047,-0.0167539212698051,0.000575242788912131,0.00920388462259409,-1.58786184499378
2.25,30.462671631,-1076.694885056,-0.6207285,21460.3018372703,13.1543202578202,6.66512300082883,316.278101340904,-0.219794166397586,-0.0167419099900166,0.000383495192608087,0.0096832536133542,-1.58805359259009
2.3,30.462671631,-1076.694885056,-0.6207285,21460.3018372703,13.1543202578202,6.66512300082883,316.255945312275,-0.219735866167146,-0.0166938648708625,-0.000287621394456065,0.0101626226041143,-1.5884370877827
2.35,30.462671631,-1076.694885056,-0.6207285,21460.3018372703,13.1543202578202,6.66512300082883,316.227458989753,-0.219590115591047,-0.0166578310314969,-0.00105461177967224,0.0105461177967224,-1.58872470917715
2.4,30.469065802,-1075.204678976,-1.268698495,21460.3018372703,13.1543202578202,6.66512300082883,316.205302961124,-0.219560965475827,-0.0166097859123429,-0.00182160216488841,0.0108337391911785,-1.58910820436976
2.45,30.469065802,-1075.204678976,-1.268698495,21460.3018372703,13.1543202578202,6.66512300082883,316.176816638601,-0.219356914669287,-0.01663380847192,-0.00258859255010459,0.0108337391911785,-1.58939582576422
2.5,30.469065802,-1075.204678976,-1.268698495,21460.3018372703,13.1436106264006,6.66483071557665,316.154660609972,-0.219298614438847,-0.0165617407931888,-0.00402669952238492,0.0109296129893305,-1.58968344715867
2.55,30.469065802,-1075.204678976,-1.268698495,21460.3018372703,13.1436106264006,6.66483071557665,316.12617428745,-0.219473515130167,-0.0164776618346691,-0.00479368990760109,0.0106419915948744,-1.58977932095683
2.6,30.475406577,-1074.080250752,-1.67535671,21460.3018372703,13.1436106264006,6.66483071557665,316.100853111874,-0.219765016282366,-0.0165857633527658,-0.00613592308172939,0.0102584964022663,-1.58987519475498
2.65,30.475406577,-1074.080250752,-1.67535671,21460.3018372703,13.1436106264006,6.66483071557665,316.075531936298,-0.220173117895446,-0.0165737520729773,-0.00699878726509759,0.00997087500781027,-1.58997106855313
2.7,30.475406577,-1074.080250752,-1.67535671,21460.3018372703,13.1436106264006,6.66483071557665,316.050210760723,-0.220085667549786,-0.0165257069538233,-0.00776577765031377,0.00910801082444207,-1.58987519475498
2.75,30.475406577,-1074.080250752,-1.67535671,21460.6299212598,13.1436106264006,6.66483071557665,316.0217244382,-0.220260568241106,-0.0165977746325544,-0.0083410204392259,0.00872451563183398,-1.58987519475498
2.8,30.445453328,-1072.39855136,-1.913024213,21460.6299212598,13.1089336043022,6.66477825412113,316.002733556518,-0.220348018586766,-0.0165737520729773,-0.00901213702629005,0.00814927284292185,-1.58968344715867
2.85,30.445453328,-1072.39855136,-1.913024213,21460.6299212598,13.1089336043022,6.66477825412113,315.983742674836,-0.220522919278086,-0.0165977746325544,-0.00949150601705016,0.00795752524661781,-1.58958757336052
2.9,30.445453328,-1072.39855136,-1.913024213,21460.6299212598,13.1089336043022,6.66477825412113,315.964751793155,-0.220522919278086,-0.01663380847192,-0.0101626226041143,0.00757403005400972,-1.58939582576422
2.95,30.445453328,-1072.39855136,-1.913024213,21461.2860892388,13.1089336043022,6.66477825412113,315.945760911473,-0.220493769162866,-0.0166698423112855,-0.0104502439985704,0.00757403005400972,-1.58929995196607
3,30.419256869,-1071.37761984,-1.725095084,21461.2860892388,13.1089336043022,6.66477825412113,315.923604882844,-0.220493769162866,-0.0167298987102281,-0.0109296129893305,0.00757403005400972,-1.58929995196607
3.05,30.419256869,-1071.37761984,-1.725095084,21461.2860892388,13.1089336043022,6.66477825412113,315.901448854215,-0.220260568241106,-0.0166938648708625,-0.0109296129893305,0.00757403005400972,-1.58920407816791
3.1,30.419256869,-1071.37761984,-1.725095084,21461.2860892388,13.0867873755794,6.66438854045156,315.879292825586,-0.220143967780226,-0.0166698423112855,-0.0108337391911785,0.00776577765031377,-1.58910820436976
3.15,30.419256869,-1071.37761984,-1.725095084,21461.2860892388,13.0867873755794,6.66438854045156,315.847641356117,-0.220231418125886,-0.0167058761506511,-0.0106419915948744,0.00805339904476983,-1.58920407816791
3.2,30.280612248,-1069.852508032,-1.411208605,21461.2860892388,13.0867873755794,6.66438854045156,315.822320180541,-0.220231418125886,-0.0166938648708625,-0.0102584964022663,0.0083410204392259,-1.58920407816791
3.25,30.280612248,-1069.852508032,-1.411208605,21461.9422572178,13.0867873755794,6.66438854045156,315.790668711071,-0.220173117895446,-0.0167178874304396,-0.0100667488059623,0.00862864183368196,-1.58929995196607
3.3,30.280612248,-1069.852508032,-1.411208605,21461.9422572178,13.0867873755794,6.66438854045156,315.762182388549,-0.219910766858466,-0.0166938648708625,-0.00958737981520218,0.00891626322813803,-1.58949169956237
3.35,30.280612248,-1069.852508032,-1.411208605,21461.9422572178,13.0867873755794,6.66438854045156,315.733696066026,-0.219794166397586,-0.016681853591074,-0.00939563221889814,0.00920388462259409,-1.58958757336052
3.4,30.188727267,-1068.844147456,-1.367151184,21461.9422572178,13.0583982336498,6.66379647545355,315.702044596556,-0.219823316512806,-0.0166698423112855,-0.00920388462259409,0.00949150601705016,-1.58977932095683
3.45,30.188727267,-1068.844147456,-1.367151184,21462.2703412073,13.0583982336498,6.66379647545355,315.673558274034,-0.219910766858466,-0.01663380847192,-0.00901213702629005,0.00949150601705016,-1.58987519475498
3.5,30.188727267,-1068.844147456,-1.367151184,21462.2703412073,13.0583982336498,6.66379647545355,315.641906804564,-0.220114817665006,-0.0166698423112855,-0.00910801082444207,0.00939563221889814,-1.58997106855313
3.55,30.188727267,-1068.844147456,-1.367151184,21462.2703412073,13.0583982336498,6.66379647545355,315.610255335094,-0.220027367319346,-0.0166938648708625,-0.00920388462259409,0.00910801082444207,-1.58997106855313
3.6,30.115054136,-1067.319889984,-1.377839919,21462.2703412073,13.0583982336498,6.66379647545355,315.578603865625,-0.219998217204126,-0.0166578310314969,-0.00920388462259409,0.008820389429986,-1.58997106855313
3.65,30.115054136,-1067.319889984,-1.377839919,21462.2703412073,13.0583982336498,6.66379647545355,315.550117543102,-0.220231418125886,-0.0166698423112855,-0.00929975842074612,0.00853276803552994,-1.59006694235128
3.7,30.115054136,-1067.319889984,-1.377839919,21462.2703412073,13.0268164374271,6.66369904703616,315.527961514473,-0.220464619047646,-0.016681853591074,-0.00939563221889814,0.00814927284292185,-1.58997106855313
3.75,30.115054136,-1067.319889984,-1.377839919,21462.9265091863,13.0268164374271,6.66369904703616,315.499475191951,-0.220377168701986,-0.0166938648708625,-0.00910801082444207,0.00795752524661781,-1.58987519475498
3.8,30.139078522,-1066.288340288,-1.300099157,21462.9265091863,13.0268164374271,6.66369904703616,315.477319163322,-0.220260568241106,-0.0167058761506511,-0.008820389429986,0.00786165144846579,-1.58977932095683
3.85,30.139078522,-1066.288340288,-1.300099157,21462.9265091863,13.0268164374271,6.66369904703616,315.448832840799,-0.220260568241106,-0.0167178874304396,-0.00872451563183398,0.00786165144846579,-1.58968344715867
3.9,30.139078522,-1066.288340288,-1.300099157,21462.9265091863,13.0268164374271,6.66369904703616,315.423511665223,-0.220173117895446,-0.0167419099900166,-0.00786165144846579,0.00805339904476983,-1.58958757336052
3.95,30.139078522,-1066.288340288,-1.300099157,21463.2545931758,13.0268164374271,6.66369904703616,315.391860195754,-0.220231418125886,-0.0167539212698051,-0.0074781562558577,0.00814927284292185,-1.58958757336052
4,30.086370949,-1064.7894688,-1.028952362,21463.2545931758,13.0066262715458,6.66350419020138,315.366539020178,-0.220085667549786,-0.0167178874304396,-0.00738228245770568,0.00824514664107387,-1.58958757336052
4.05,30.086370949,-1064.7894688,-1.028952362,21463.2545931758,13.0066262715458,6.66350419020138,315.334887550708,-0.220056517434566,-0.0167659325495936,-0.00719053486140163,0.00853276803552994,-1.58958757336052
4.1,30.086370949,-1064.7894688,-1.028952362,21463.2545931758,13.0066262715458,6.66350419020138,315.306401228186,-0.220143967780226,-0.0167539212698051,-0.00671116587064153,0.00853276803552994,-1.58958757336052
4.15,30.086370949,-1064.7894688,-1.028952362,21463.2545931758,13.0066262715458,6.66350419020138,315.277914905663,-0.220143967780226,-0.0168139776687477,-0.00642354447618546,0.00872451563183398,-1.58968344715867
4.2,30.040831789,-1063.806250112,-0.873918983,21463.2545931758,13.0066262715458,6.66350419020138,315.246263436193,-0.220143967780226,-0.0168740340676903,-0.00613592308172939,0.008820389429986,-1.58968344715867
4.25,30.040831789,-1063.806250112,-0.873918983,21463.9107611548,13.0066262715458,6.66350419020138,315.220942260618,-0.220027367319346,-0.0168500115081133,-0.00575242788912131,0.008820389429986,-1.58977932095683
4.3,30.040831789,-1063.806250112,-0.873918983,21463.9107611548,12.9750444753231,6.66296458665889,315.195621085042,-0.220143967780226,-0.0168740340676903,-0.00546480649466524,0.008820389429986,-1.58987519475498
4.35,30.040831789,-1063.806250112,-0.873918983,21463.9107611548,12.9750444753231,6.66296458665889,315.170299909466,-0.220056517434566,-0.0168980566272674,-0.00508131130205716,0.00891626322813803,-1.59006694235128
4.4,29.95588066,-1062.364252992,-0.733005032,21463.9107611548,12.9750444753231,6.66296458665889,315.148143880837,-0.220143967780226,-0.0168860453474788,-0.00488956370575311,0.008820389429986,-1.59016281614943
4.45,29.95588066,-1062.364252992,-0.733005032,21464.2388451443,12.9750444753231,6.66296458665889,315.122822705262,-0.219969067088906,-0.0168620227879018,-0.00450606851314502,0.00891626322813803,-1.59035456374574
4.5,29.95588066,-1062.364252992,-0.733005032,21464.2388451443,12.9750444753231,6.66296458665889,315.106996970527,-0.220056517434566,-0.0168500115081133,-0.00431432091684098,0.008820389429986,-1.59054631134204
4.55,29.95588066,-1062.364252992,-0.733005032,21464.2388451443,12.9750444753231,6.66296458665889,315.084840941898,-0.219998217204126,-0.0168259889485363,-0.00431432091684098,0.00891626322813803,-1.59064218514019
4.6,29.891261965,-1061.419601472,-0.746352125,21464.2388451443,12.9350163847618,6.6627697298241,315.062684913269,-0.219969067088906,-0.0168380002283248,-0.00421844711868896,0.008820389429986,-1.5908339327365
4.65,29.891261965,-1061.419601472,-0.746352125,21464.2388451443,12.9350163847618,6.6627697298241,315.040528884641,-0.219939916973686,-0.0168380002283248,-0.00431432091684098,0.00910801082444207,-1.59092980653465
4.7,29.891261965,-1061.419601472,-0.746352125,21464.2388451443,12.9350163847618,6.6627697298241,315.024703149906,-0.219998217204126,-0.0168500115081133,-0.00431432091684098,0.00901213702629005,-1.5910256803328
4.75,29.891261965,-1061.419601472,-0.746352125,21464.5669291338,12.9350163847618,6.6627697298241,315.005712268224,-0.220027367319346,-0.0168259889485363,-0.00431432091684098,0.00920388462259409,-1.59112155413095
4.8,29.844508046,-1059.97284448,-0.733817414,21464.5669291338,12.9350163847618,6.6627697298241,314.986721386542,-0.220085667549786,-0.0168019663889592,-0.00421844711868896,0.00920388462259409,-1.59112155413095
4.85,29.844508046,-1059.97284448,-0.733817414,21464.5669291338,12.9350163847618,6.6627697298241,314.970895651807,-0.220114817665006,-0.0167899551091707,-0.00412257332053694,0.00929975842074612,-1.59131330172726
4.9,29.844508046,-1059.97284448,-0.733817414,21464.5669291338,12.9181163015909,6.66261983995119,314.961400210966,-0.220114817665006,-0.0167779438293822,-0.00393082572423289,0.00939563221889814,-1.59131330172726
4.95,29.844508046,-1059.97284448,-0.733817414,21464.8950131233,12.9181163015909,6.66261983995119,314.948739623179,-0.220260568241106,-0.0167779438293822,-0.00373907812792885,0.00949150601705016,-1.59131330172726
5,29.852130325,-1059.028070912,-0.851116984,21464.8950131233,12.9181163015909,6.66261983995119,314.932913888444,-0.220377168701986,-0.0167659325495936,-0.00354733053162481,0.00958737981520218,-1.59140917552541
5.05,29.852130325,-1059.028070912,-0.851116984,21464.8950131233,12.9181163015909,6.66261983995119,314.920253300656,-0.220756120199846,-0.0167419099900166,-0.00316383533901672,0.0096832536133542,-1.59140917552541
5.1,29.852130325,-1059.028070912,-0.851116984,21464.8950131233,12.9181163015909,6.66261983995119,314.910757859815,-0.220785270315066,-0.0166938648708625,-0.00287621394456065,0.00977912741150622,-1.59140917552541
5.15,29.852130325,-1059.028070912,-0.851116984,21464.8950131233,12.9181163015909,6.66261983995119,314.89493212508,-0.221047621352045,-0.0166698423112855,-0.00258859255010459,0.00987500120965825,-1.59140917552541
5.2,29.883210611,-1057.316713856,-1.012653233,21464.8950131233,12.8998522205765,6.66261983995119,314.879106390345,-0.221222522043365,-0.01663380847192,-0.00239684495380055,0.00997087500781027,-1.59140917552541
5.25,29.883210611,-1057.316713856,-1.012653233,21464.8950131233,12.8998522205765,6.66261983995119,314.863280655611,-0.221368272619465,-0.0166458197517084,-0.00210922355934448,0.00997087500781027,-1.59131330172726
5.3,29.883210611,-1057.316713856,-1.012653233,21464.8950131233,12.8998522205765,6.66261983995119,314.850620067823,-0.221630623656445,-0.0165857633527658,-0.00182160216488841,0.0100667488059623,-1.59131330172726
5.35,29.883210611,-1057.316713856,-1.012653233,21464.8950131233,12.8998522205765,6.66261983995119,314.834794333088,-0.221718074002105,-0.0165617407931888,-0.00162985456858437,0.0101626226041143,-1.59131330172726
5.4,29.907564908,-1056.179836736,-1.104387561,21464.8950131233,12.8998522205765,6.66261983995119,314.815803451406,-0.221776374232545,-0.0165377182336118,-0.00143810697228033,0.0101626226041143,-1.59131330172726
5.45,29.907564908,-1056.179836736,-1.104387561,21465.2230971128,12.8998522205765,6.66261983995119,314.796812569724,-0.221688923886885,-0.0165617407931888,-0.00124635937597628,0.0102584964022663,-1.59131330172726
5.5,29.907564908,-1056.179836736,-1.104387561,21465.2230971128,12.8747006999018,6.66266480691306,314.784151981936,-0.221805524347765,-0.0165377182336118,-0.00115048557782426,0.0104502439985704,-1.59131330172726
5.55,29.907564908,-1056.179836736,-1.104387561,21465.2230971128,12.8747006999018,6.66266480691306,314.768326247202,-0.221980425039085,-0.0165497295134002,-0.00105461177967224,0.0105461177967224,-1.59131330172726
5.6,29.874159989,-1054.517542976,-1.357194737,21465.2230971128,12.8747006999018,6.66266480691306,314.746170218573,-0.222067875384745,-0.0165016843942462,-0.000958737981520218,0.0106419915948744,-1.59131330172726
5.65,29.874159989,-1054.517542976,-1.357194737,21465.2230971128,12.8747006999018,6.66266480691306,314.733509630785,-0.221892974693425,-0.0165016843942462,-0.000958737981520218,0.0108337391911785,-1.59140917552541
5.7,29.874159989,-1054.517542976,-1.357194737,21465.2230971128,12.8747006999018,6.66266480691306,314.714518749103,-0.221892974693425,-0.0165136956740347,-0.00105461177967224,0.0109296129893305,-1.59140917552541
5.75,29.874159989,-1054.517542976,-1.357194737,21465.5511811023,12.8747006999018,6.66266480691306,314.698693014368,-0.221892974693425,-0.0165016843942462,-0.00115048557782426,0.0111213605856345,-1.59150504932356
5.8,29.874022685,-1053.403854976,-1.504727885,21465.5511811023,12.8460192727199,6.6625224115338,314.67653698574,-0.222038725269525,-0.0165016843942462,-0.00124635937597628,0.0110254867874825,-1.59131330172726
5.85,29.874022685,-1053.403854976,-1.504727885,21465.5511811023,12.8460192727199,6.6625224115338,314.654380957111,-0.222097025499965,-0.0165136956740347,-0.00124635937597628,0.0112172343837865,-1.59121742792911
5.9,29.874022685,-1053.403854976,-1.504727885,21465.5511811023,12.8460192727199,6.6625224115338,314.638555222376,-0.222184475845625,-0.0164896731144577,-0.00124635937597628,0.0111213605856345,-1.5910256803328
5.95,29.874022685,-1053.403854976,-1.504727885,21466.2073490813,12.8460192727199,6.6625224115338,314.616399193747,-0.222301076306504,-0.0164776618346691,-0.000958737981520218,0.0110254867874825,-1.59073805893835
6,29.948479593,-1051.513575552,-1.765248876,21466.2073490813,12.8460192727199,6.6625224115338,314.591078018172,-0.222155325730405,-0.0165377182336118,-0.000479368990760109,0.0110254867874825,-1.59064218514019
6.05,29.948479593,-1051.513575552,-1.765248876,21466.2073490813,12.8460192727199,6.6625224115338,314.568921989543,-0.222126175615185,-0.0165257069538233,0.000287621394456065,0.0109296129893305,-1.59035456374574
6.1,29.948479593,-1051.513575552,-1.765248876,21466.2073490813,12.817974877498,6.7126680685167,314.549931107861,-0.222330226421724,-0.0165257069538233,0.00115048557782426,0.0109296129893305,-1.59016281614943
6.15,29.948479593,-1051.513575552,-1.765248876,21466.2073490813,12.817974877498,6.7126680685167,314.524609932285,-0.222417676767384,-0.0165257069538233,0.00249271875195257,0.0107378653930264,-1.58997106855313
6.2,30.014980497,-1050.241225152,-1.878330162,21466.2073490813,12.817974877498,6.7126680685167,314.502453903656,-0.222446826882604,-0.0165377182336118,0.00345145673347278,0.0105461177967224,-1.58987519475498
6.25,30.014980497,-1050.241225152,-1.878330162,21466.5354330708,12.817974877498,6.7126680685167,314.477132728081,-0.222330226421724,-0.0165136956740347,0.00479368990760109,0.0105461177967224,-1.58987519475498
6.3,30.014980497,-1050.241225152,-1.878330162,21466.5354330708,12.817974877498,6.7126680685167,314.454976699452,-0.222650877689144,-0.0164896731144577,0.00546480649466524,0.0103543702004184,-1.58997106855313
6.35,30.014980497,-1050.241225152,-1.878330162,21466.5354330708,12.817974877498,6.7126680685167,314.432820670823,-0.222680027804364,-0.0164656505548806,0.00632767067803344,0.0102584964022663,-1.59006694235128
6.4,30.09696052,-1048.38743808,-1.794803562,21466.5354330708,12.7821212198973,6.86183097554565,314.401169201354,-0.222563427343484,-0.0164656505548806,0.00671116587064153,0.0102584964022663,-1.59006694235128
6.45,30.09696052,-1048.38743808,-1.794803562,21466.5354330708,12.7821212198973,6.86183097554565,314.375848025778,-0.222417676767384,-0.0164656505548806,0.00699878726509759,0.0104502439985704,-1.59025868994759
6.5,30.09696052,-1048.38743808,-1.794803562,21466.8635170603,12.7821212198973,6.86183097554565,314.350526850202,-0.222767478150024,-0.0164296167155151,0.00690291346694557,0.0104502439985704,-1.59025868994759
6.55,30.09696052,-1048.38743808,-1.794803562,21466.8635170603,12.7821212198973,6.86183097554565,314.322040527679,-0.222796628265244,-0.0163935828761495,0.0066152920724895,0.0107378653930264,-1.59035456374574
6.6,30.163917197,-1047.200155136,-1.753454081,21466.8635170603,12.7821212198973,6.86183097554565,314.299884499051,-0.222680027804364,-0.0163695603165724,0.00613592308172939,0.0109296129893305,-1.59054631134204
6.65,30.163917197,-1047.200155136,-1.753454081,21466.8635170603,12.7821212198973,6.86183097554565,314.277728470422,-0.222650877689144,-0.0163335264772069,0.00536893269651322,0.0111213605856345,-1.59054631134204
6.7,30.163917197,-1047.200155136,-1.753454081,21466.8635170603,12.7514237739248,6.94105526787359,314.249242147899,-0.222621727573924,-0.0163215151974184,0.00469781610944907,0.0113131081819386,-1.59064218514019
6.75,30.163917197,-1047.200155136,-1.753454081,21466.8635170603,12.7514237739248,6.94105526787359,314.220755825377,-0.222621727573924,-0.0163335264772069,0.00373907812792885,0.0115048557782426,-1.59064218514019
6.8,30.264143396,-1045.402266048,-1.722547332,21467.5196850393,12.7514237739248,6.94105526787359,314.189104355907,-0.222621727573924,-0.0163215151974184,0.00297208774271268,0.0117924771726987,-1.59064218514019
6.85,30.264143396,-1045.402266048,-1.722547332,21467.5196850393,12.7514237739248,6.94105526787359,314.160618033384,-0.222680027804364,-0.0163215151974184,0.00201334976119246,0.0119842247690027,-1.59064218514019
6.9,30.264143396,-1045.402266048,-1.722547332,21467.5196850393,12.7514237739248,6.94105526787359,314.132131710862,-0.222388526652164,-0.0162734700782643,0.00124635937597628,0.0121759723653068,-1.59064218514019
6.95,30.264143396,-1045.402266048,-1.722547332,21467.5196850393,12.7514237739248,6.94105526787359,314.106810535286,-0.222650877689144,-0.0162854813580528,0.000383495192608087,0.0121759723653068,-1.59054631134204
7,30.308822499,-1044.27991264,-1.818942368,21468.1758530184,12.7199843730814,6.9808885016001,314.075159065816,-0.222505127113044,-0.0162734700782643,-0.000191747596304044,0.0121759723653068,-1.59054631134204
7.05,30.308822499,-1044.27991264,-1.818942368,21468.1758530184,12.7199843730814,6.9808885016001,314.046672743293,-0.222505127113044,-0.0162974926378413,-0.000958737981520218,0.0121759723653068,-1.59054631134204
7.1,30.308822499,-1044.27991264,-1.818942368,21468.1758530184,12.7199843730814,6.9808885016001,314.015021273824,-0.222505127113044,-0.0162854813580528,-0.00143810697228033,0.0122718461634588,-1.59045043754389
7.15,30.308822499,-1044.27991264,-1.818942368,21468.1758530184,12.7199843730814,6.9808885016001,313.986534951301,-0.222796628265244,-0.0162614587984757,-0.00210922355934448,0.0121759723653068,-1.59035456374574
7.2,30.371675312,-1042.525350592,-2.070475668,21468.1758530184,12.7199843730814,6.9808885016001,313.954883481831,-0.222971528956564,-0.0162494475186872,-0.00258859255010459,0.0121759723653068,-1.59025868994759
7.25,30.371675312,-1042.525350592,-2.070475668,21468.1758530184,12.7199843730814,6.9808885016001,313.926397159309,-0.222709177919584,-0.0162254249591102,-0.00316383533901672,0.0121759723653068,-1.59025868994759
7.3,30.371675312,-1042.525350592,-2.070475668,21468.5039370078,12.6903661341939,6.99881533040045,313.894745689839,-0.222709177919584,-0.0161413460005905,-0.00354733053162481,0.0121759723653068,-1.59025868994759
7.35,30.371675312,-1042.525350592,-2.070475668,21468.5039370078,12.6903661341939,6.99881533040045,313.869424514263,-0.222592577458704,-0.0162014023995332,-0.00412257332053694,0.0121759723653068,-1.59016281614943
7.4,30.371675312,-1041.351004736,-2.070475668,21468.5039370078,12.6903661341939,6.99881533040045,313.834607897847,-0.222796628265244,-0.0161653685601676,-0.00450606851314502,0.0122718461634588,-1.59016281614943
7.45,30.408457528,-1041.351004736,-2.116619347,21468.5039370078,12.6903661341939,6.99881533040045,313.79979128143,-0.222796628265244,-0.016153357280379,-0.0052730588983612,0.0123677199616108,-1.59016281614943
7.5,30.408457528,-1041.351004736,-2.116619347,21469.1601049869,12.6903661341939,6.99881533040045,313.768139811961,-0.223000679071784,-0.0162374362388987,-0.00556068029281726,0.0122718461634588,-1.59025868994759
7.55,30.408457528,-1041.351004736,-2.116619347,21469.1601049869,12.6903661341939,6.99881533040045,313.739653489438,-0.222330226421724,-0.0162374362388987,-0.00642354447618546,0.0125594675579149,-1.59025868994759
7.6,30.408457528,-1041.351004736,-2.116619347,21469.1601049869,12.6587393710093,7.00500578215174,313.704836873021,-0.222709177919584,-0.0163335264772069,-0.00680703966879355,0.0124635937597628,-1.59035456374574
7.65,30.418410161,-1039.645017792,-2.2050641,21469.1601049869,12.6587393710093,7.00500578215174,313.673185403552,-0.222446826882604,-0.0162494475186872,-0.00776577765031377,0.0128470889523709,-1.59045043754389
7.7,30.418410161,-1039.645017792,-2.2050641,21469.1601049869,12.6587393710093,7.00500578215174,313.638368787135,-0.222825778380464,-0.0162254249591102,-0.00824514664107387,0.0127512151542189,-1.59045043754389
7.75,30.418410161,-1039.645017792,-2.2050641,21469.1601049869,12.6587393710093,7.00500578215174,313.609882464612,-0.222738328034804,-0.0162374362388987,-0.00910801082444207,0.0129429627505229,-1.59064218514019
7.8,30.418410161,-1039.645017792,-2.2050641,21469.8162729659,12.6587393710093,7.00500578215174,313.571900701249,-0.222825778380464,-0.0161413460005905,-0.00977912741150622,0.0129429627505229,-1.59064218514019
7.85,30.381502083,-1038.549392896,-2.40369722,21469.8162729659,12.6587393710093,7.00500578215174,313.540249231779,-0.222913228726124,-0.016129334720802,-0.0107378653930264,0.013038836548675,-1.5908339327365
7.9,30.381502083,-1038.549392896,-2.40369722,21469.8162729659,12.6275472884562,7.00505824360726,313.511762909256,-0.222854928495684,-0.016153357280379,-0.0114089819800906,0.0129429627505229,-1.5908339327365
7.95,30.381502083,-1038.549392896,-2.40369722,21469.8162729659,12.6275472884562,7.00505824360726,313.480111439787,-0.222680027804364,-0.0161413460005905,-0.0124635937597628,0.013038836548675,-1.5908339327365
8,30.381502083,-1038.549392896,-2.40369722,21470.1443569554,12.6275472884562,7.00505824360726,313.448459970317,-0.222709177919584,-0.0161653685601676,-0.013038836548675,0.0129429627505229,-1.59092980653465
8.05,30.310733313,-1036.902233088,-2.552016052,21470.1443569554,12.6275472884562,7.00505824360726,313.4136433539,-0.222913228726124,-0.0161653685601676,-0.0140934483283472,0.0128470889523709,-1.5908339327365
8.1,30.310733313,-1036.902233088,-2.552016052,21470.1443569554,12.6275472884562,7.00505824360726,313.381991884431,-0.223204729878324,-0.0161413460005905,-0.0146686911172593,0.0127512151542189,-1.59092980653465
8.15,30.310733313,-1036.902233088,-2.552016052,21470.1443569554,12.6275472884562,7.00505824360726,313.350340414961,-0.223088129417444,-0.0161413460005905,-0.0155315553006275,0.0127512151542189,-1.5908339327365
8.2,30.310733313,-1036.902233088,-2.552016052,21470.1443569554,12.5997052445627,7.00156580956839,313.315523798545,-0.222913228726124,-0.0162254249591102,-0.0160109242913876,0.0128470889523709,-1.59092980653465
8.25,30.276544617,-1035.826502016,-2.684398085,21470.1443569554,12.5997052445627,7.00156580956839,313.283872329075,-0.222884078610904,-0.0161893911197446,-0.0166820408784518,0.0129429627505229,-1.5908339327365
8.3,30.276544617,-1035.826502016,-2.684398085,21470.8005249344,12.5997052445627,7.00156580956839,313.255386006552,-0.223088129417444,-0.0161893911197446,-0.0171614098692119,0.0129429627505229,-1.5908339327365
8.35,30.276544617,-1035.826502016,-2.684398085,21470.8005249344,12.5997052445627,7.00156580956839,313.226899684029,-0.223204729878324,-0.0161653685601676,-0.017640778859972,0.013038836548675,-1.5908339327365
8.4,30.276544617,-1035.826502016,-2.684398085,21470.8005249344,12.5997052445627,7.00156580956839,313.19524821456,-0.223000679071784,-0.0161893911197446,-0.0180242740525801,0.013134710346827,-1.5908339327365
8.45,30.222153163,-1034.20057856,-2.73284542,21470.8005249344,12.5997052445627,7.00156580956839,313.160431598143,-0.222767478150024,-0.0162014023995332,-0.0184077692451882,0.013326457943131,-1.5908339327365
8.5,30.222153163,-1034.20057856,-2.73284542,21471.7847769029,12.57180324472,6.99577256598032,313.128780128674,-0.222884078610904,-0.0162254249591102,-0.0185036430433402,0.013230584144979,-1.5908339327365
8.55,30.222153163,-1034.20057856,-2.73284542,21471.7847769029,12.57180324472,6.99577256598032,313.100293806151,-0.222942378841344,-0.0162254249591102,-0.0188871382359483,0.013326457943131,-1.5908339327365
8.6,30.222153163,-1034.20057856,-2.73284542,21471.7847769029,12.57180324472,6.99577256598032,313.065477189734,-0.223058979302224,-0.0162134136793217,-0.0189830120341003,0.013038836548675,-1.5908339327365
8.65,30.169672523,-1033.133756992,-2.782049834,21471.7847769029,12.57180324472,6.99577256598032,313.033825720265,-0.223175579763104,-0.0162014023995332,-0.0192706334285564,0.0127512151542189,-1.59092980653465
8.7,30.169672523,-1033.133756992,-2.782049834,21471.7847769029,12.57180324472,6.99577256598032,312.999009103848,-0.223233879993544,-0.0162134136793217,-0.0193665072267084,0.0123677199616108,-1.59092980653465
8.75,30.169672523,-1033.133756992,-2.782049834,21471.7847769029,12.57180324472,6.99577256598032,312.964192487431,-0.223146429647884,-0.0162254249591102,-0.0199417500156205,0.0119842247690027,-1.5910256803328
8.8,30.169672523,-1033.133756992,-2.782049834,21472.4409448819,12.5439537063329,6.98855536859958,312.929375871015,-0.223058979302224,-0.0161893911197446,-0.0200376238137726,0.0116007295763946,-1.59112155413095
8.85,30.060111559,-1031.509298112,-2.588508404,21472.4409448819,12.5439537063329,6.98855536859958,312.897724401545,-0.223263030108764,-0.0161893911197446,-0.0205169928045327,0.0111213605856345,-1.59112155413095
8.9,30.060111559,-1031.509298112,-2.588508404,21472.4409448819,12.5439537063329,6.98855536859958,312.866072932075,-0.223408780684864,-0.0161893911197446,-0.0208046141989887,0.0109296129893305,-1.59131330172726
8.95,30.060111559,-1031.509298112,-2.588508404,21472.4409448819,12.5439537063329,6.98855536859958,312.834421462606,-0.223641981606623,-0.0161653685601676,-0.0214757307860529,0.0106419915948744,-1.59140917552541
9,30.060111559,-1031.509298112,-2.588508404,21473.0971128609,12.5160592009839,6.98040135951314,312.802769993136,-0.223700281837063,-0.0161653685601676,-0.021859225978661,0.0105461177967224,-1.59140917552541
9.05,29.983299506,-1030.524858944,-2.299977397,21473.0971128609,12.5160592009839,6.98040135951314,312.76795337672,-0.223437930800084,-0.0161773798399561,-0.0225303425657251,0.0104502439985704,-1.59150504932356
9.1,29.983299506,-1030.524858944,-2.299977397,21473.0971128609,12.5160592009839,6.98040135951314,312.739467054197,-0.223408780684864,-0.0161893911197446,-0.0231055853546373,0.0105461177967224,-1.59150504932356
9.15,29.983299506,-1030.524858944,-2.299977397,21473.0971128609,12.5160592009839,6.98040135951314,312.707815584727,-0.223263030108764,-0.0162014023995332,-0.0236808281435494,0.0106419915948744,-1.59160092312171
9.2,29.983299506,-1030.524858944,-2.299977397,21473.0971128609,12.5160592009839,6.98040135951314,312.676164115258,-0.223467080915304,-0.0161893911197446,-0.0241601971343095,0.0108337391911785,-1.59160092312171
9.25,29.854834451,-1029.047467904,-1.718838217,21473.0971128609,12.5160592009839,6.98040135951314,312.647677792735,-0.223612831491403,-0.0162014023995332,-0.0244478185287656,0.0111213605856345,-1.59150504932356
9.3,29.854834451,-1029.047467904,-1.718838217,21473.7532808399,12.4879623443064,6.9718051753016,312.616026323265,-0.223117279532664,-0.0161893911197446,-0.0244478185287656,0.0114089819800906,-1.59160092312171
9.35,29.854834451,-1029.047467904,-1.718838217,21473.7532808399,12.4879623443064,6.9718051753016,312.584374853796,-0.223029829187004,-0.0162014023995332,-0.0243519447306135,0.0115048557782426,-1.59160092312171
9.4,29.854834451,-1029.047467904,-1.718838217,21473.7532808399,12.4879623443064,6.9718051753016,312.555888531273,-0.222854928495684,-0.0162254249591102,-0.0242560709324615,0.0116966033745467,-1.59160092312171
9.45,29.770470678,-1028.09451712,-1.404669502,21473.7532808399,12.4879623443064,6.9718051753016,312.524237061803,-0.223000679071784,-0.0161653685601676,-0.0239684495380054,0.0116966033745467,-1.59169679691987
9.5,29.770470678,-1028.09451712,-1.404669502,21474.4094488189,12.4879623443064,6.9718051753016,312.498915886227,-0.223117279532664,-0.0162134136793217,-0.0238725757398534,0.0117924771726987,-1.59169679691987
9.55,29.770470678,-1028.09451712,-1.404669502,21474.4094488189,12.4879623443064,6.9718051753016,312.464099269811,-0.223204729878324,-0.0162254249591102,-0.0233932067490933,0.0116007295763946,-1.59179267071802
9.6,29.770470678,-1028.09451712,-1.404669502,21474.4094488189,12.4676297830458,6.96286424438237,312.435612947288,-0.223233879993544,-0.0162494475186872,-0.0232973329509413,0.0116007295763946,-1.59188854451617
9.65,29.655305041,-1026.671071296,-1.166515714,21474.4094488189,12.4676297830458,6.96286424438237,312.403961477818,-0.223146429647884,-0.0162254249591102,-0.0229138377583332,0.0113131081819386,-1.59198441831432
9.7,29.655305041,-1026.671071296,-1.166515714,21474.4094488189,12.4676297830458,6.96286424438237,312.375475155296,-0.222825778380464,-0.0162494475186872,-0.0227220901620292,0.0111213605856345,-1.59208029211247
9.75,29.655305041,-1026.671071296,-1.166515714,21474.4094488189,12.4676297830458,6.96286424438237,312.346988832773,-0.222942378841344,-0.0162014023995332,-0.0226262163638771,0.0109296129893305,-1.59217616591063
9.8,29.655305041,-1026.671071296,-1.166515714,21474.7375328084,12.4676297830458,6.96286424438237,312.315337363303,-0.223437930800084,-0.0161893911197446,-0.0224344687675731,0.0107378653930264,-1.59227203970878
9.85,29.575922352,-1025.714825216,-0.997713795,21474.7375328084,12.4676297830458,6.96286424438237,312.283685893834,-0.223496231030524,-0.016129334720802,-0.0225303425657251,0.0107378653930264,-1.59236791350693
9.9,29.575922352,-1025.714825216,-0.997713795,21474.7375328084,12.4437598207845,6.95436548858822,312.255199571311,-0.223525381145744,-0.0161653685601676,-0.0225303425657251,0.0105461177967224,-1.59246378730508
9.95,29.575922352,-1025.714825216,-0.997713795,21474.7375328084,12.4437598207845,6.95436548858822,312.226713248788,-0.223204729878324,-0.0161893911197446,-0.0227220901620292,0.0106419915948744,-1.59255966110323
10,29.575922352,-1025.714825216,-0.997713795,21475.3937007874,12.4437598207845,6.95436548858822,312.195061779319,-0.223263030108764,-0.0161893911197446,-0.0228179639601812,0.0104502439985704,-1.59265553490139
10.05,29.459175812,-1024.31652128,-0.695132012,21475.3937007874,12.4437598207845,6.95436548858822,312.163410309849,-0.223058979302224,-0.0161653685601676,-0.0231055853546373,0.0106419915948744,-1.59265553490139
10.1,29.459175812,-1024.31652128,-0.695132012,21475.3937007874,12.4437598207845,6.95436548858822,312.134923987326,-0.223292180223984,-0.016153357280379,-0.0232014591527893,0.0105461177967224,-1.59275140869954
10.15,29.459175812,-1024.31652128,-0.695132012,21475.3937007874,12.4437598207845,6.95436548858822,312.109602811751,-0.223233879993544,-0.0161413460005905,-0.0234890805472453,0.0105461177967224,-1.59275140869954
10.2,29.459175812,-1024.31652128,-0.695132012,21475.3937007874,12.4212163838984,6.94597165570512,312.081116489228,-0.223583681376183,-0.016153357280379,-0.0234890805472453,0.0108337391911785,-1.59275140869954
10.25,29.363997442,-1023.419834624,-0.516017037,21475.3937007874,12.4212163838984,6.94597165570512,312.055795313652,-0.223379630569644,-0.0161653685601676,-0.0235849543453974,0.0108337391911785,-1.59284728249769
10.3,29.363997442,-1023.419834624,-0.516017037,21475.7217847769,12.4212163838984,6.94597165570512,312.02730899113,-0.222796628265244,-0.0162014023995332,-0.0237767019417014,0.0110254867874825,-1.59284728249769
10.35,29.204833501,-1022.125210464,-0.241494852,21475.7217847769,12.4212163838984,6.94597165570512,312.005152962501,-0.222505127113044,-0.0161773798399561,-0.0238725757398534,0.0110254867874825,-1.59275140869954
10.4,29.204833501,-1022.125210464,-0.241494852,21475.7217847769,12.4212163838984,6.94597165570512,311.970336346084,-0.223029829187004,-0.0161893911197446,-0.0237767019417014,0.0111213605856345,-1.59284728249769
10.45,29.204833501,-1022.125210464,-0.241494852,21475.7217847769,12.4212163838984,6.94597165570512,311.945015170508,-0.223321330339204,-0.0161773798399561,-0.0236808281435494,0.0111213605856345,-1.59275140869954
10.5,29.204833501,-1022.125210464,-0.241494852,21475.7217847769,12.4212163838984,6.94597165570512,311.92285914188,-0.223204729878324,-0.0161773798399561,-0.0234890805472453,0.0111213605856345,-1.59275140869954
10.55,29.119409436,-1021.290158048,-0.154169508,21475.7217847769,12.4009287895997,6.93751786687285,311.900703113251,-0.222942378841344,-0.0161773798399561,-0.0232973329509413,0.0111213605856345,-1.59275140869954
10.6,29.119409436,-1021.290158048,-0.154169508,21475.7217847769,12.4009287895997,6.93751786687285,311.872216790728,-0.223233879993544,-0.0161773798399561,-0.0229138377583332,0.0111213605856345,-1.59265553490139
10.65,29.119409436,-1021.290158048,-0.154169508,21475.7217847769,12.4009287895997,6.93751786687285,311.843730468206,-0.223233879993544,-0.0161773798399561,-0.0225303425657251,0.0110254867874825,-1.59265553490139
10.7,29.119409436,-1021.290158048,-0.154169508,21475.7217847769,12.4009287895997,6.93751786687285,311.81840929263,-0.223204729878324,-0.0161773798399561,-0.021955099776813,0.0110254867874825,-1.59265553490139
10.75,29.044614989,-1020.063941792,-0.048885945,21475.7217847769,12.4009287895997,6.93751786687285,311.793088117054,-0.223146429647884,-0.0161413460005905,-0.0215716045842049,0.0110254867874825,-1.59265553490139
10.8,29.044614989,-1020.063941792,-0.048885945,21476.0498687664,12.4009287895997,6.93751786687285,311.764601794531,-0.223233879993544,-0.0161893911197446,-0.0208046141989887,0.0110254867874825,-1.59265553490139
10.85,29.044614989,-1020.063941792,-0.048885945,21476.0498687664,12.381233260299,6.92922146240714,311.736115472009,-0.222971528956564,-0.0163095039176299,-0.0203252452082286,0.0109296129893305,-1.59265553490139
10.9,29.044614989,-1020.063941792,-0.048885945,21476.0498687664,12.381233260299,6.92922146240714,311.71395944338,-0.223117279532664,-0.0162614587984757,-0.0197500024193165,0.0111213605856345,-1.59275140869954
10.95,28.990803263,-1019.31407888,-0.004212563,21476.0498687664,12.381233260299,6.92922146240714,311.685473120857,-0.223175579763104,-0.0162734700782643,-0.0193665072267084,0.0111213605856345,-1.59265553490139
11,28.990803263,-1019.31407888,-0.004212563,21476.0498687664,12.381233260299,6.92922146240714,311.663317092229,-0.223233879993544,-0.0162374362388987,-0.0187912644377963,0.0113131081819386,-1.59275140869954
11.05,28.990803263,-1019.31407888,-0.004212563,21476.0498687664,12.381233260299,6.92922146240714,311.631665622759,-0.223175579763104,-0.0162134136793217,-0.0185036430433402,0.0113131081819386,-1.59275140869954
11.1,28.990803263,-1019.31407888,-0.004212563,21476.0498687664,12.381233260299,6.92922146240714,311.606344447183,-0.222971528956564,-0.0162374362388987,-0.0181201478507321,0.0115048557782426,-1.59275140869954
11.15,28.88294525,-1018.173967488,0.02553473,21476.0498687664,12.3596266351186,6.92116488173809,311.584188418554,-0.222884078610904,-0.0161893911197446,-0.0178325264562761,0.0115048557782426,-1.59284728249769
11.2,28.88294525,-1018.173967488,0.02553473,21476.0498687664,12.3596266351186,6.92116488173809,311.555702096032,-0.223029829187004,-0.0162134136793217,-0.01754490506182,0.0116007295763946,-1.59284728249769
11.25,28.88294525,-1018.173967488,0.02553473,21476.0498687664,12.3596266351186,6.92116488173809,311.533546067403,-0.223029829187004,-0.0162254249591102,-0.0173531574655159,0.0116007295763946,-1.59294315629584
11.3,28.88294525,-1018.173967488,0.02553473,21476.0498687664,12.3596266351186,6.92116488173809,311.508224891827,-0.223233879993544,-0.0162134136793217,-0.0171614098692119,0.0116007295763946,-1.59294315629584
11.35,28.804428339,-1017.462488672,-0.002885291,21476.0498687664,12.3596266351186,6.92116488173809,311.482903716252,-0.223175579763104,-0.0162134136793217,-0.0170655360710599,0.0115048557782426,-1.59294315629584
11.4,28.804428339,-1017.462488672,-0.002885291,21476.0498687664,12.3596266351186,6.92116488173809,311.460747687623,-0.223175579763104,-0.0162254249591102,-0.0171614098692119,0.0115048557782426,-1.59303903009399
11.45,28.804428339,-1017.462488672,-0.002885291,21476.0498687664,12.3399311058179,6.91291344423425,311.435426512047,-0.222942378841344,-0.0161893911197446,-0.0170655360710599,0.0114089819800906,-1.59303903009399
11.5,28.804428339,-1017.462488672,-0.002885291,21476.0498687664,12.3399311058179,6.91291344423425,311.413270483418,-0.223146429647884,-0.0161773798399561,-0.0171614098692119,0.0114089819800906,-1.59294315629584
11.55,28.715310415,-1016.475181376,0.048973667,21476.0498687664,12.3399311058179,6.91291344423425,311.39111445479,-0.223204729878324,-0.0162014023995332,-0.0170655360710599,0.0112172343837865,-1.59294315629584
11.6,28.715310415,-1016.475181376,0.048973667,21476.0498687664,12.3399311058179,6.91291344423425,311.365793279214,-0.223146429647884,-0.016129334720802,-0.0169696622729079,0.0112172343837865,-1.59294315629584
11.65,28.715310415,-1016.475181376,0.048973667,21476.0498687664,12.3399311058179,6.91291344423425,311.343637250585,-0.223175579763104,-0.0162374362388987,-0.0168737884747558,0.0110254867874825,-1.59284728249769
11.7,28.715310415,-1016.475181376,0.048973667,21476.3779527559,12.3399311058179,6.91291344423425,311.321481221956,-0.223175579763104,-0.0162614587984757,-0.0166820408784518,0.0108337391911785,-1.59275140869954
11.75,28.709619927,-1015.835893952,0.152695397,21476.3779527559,12.3211648937293,6.9045121168575,311.296160046381,-0.223175579763104,-0.0162734700782643,-0.0162985456858437,0.0106419915948744,-1.59265553490139
11.8,28.709619927,-1015.835893952,0.152695397,21476.3779527559,12.3211648937293,6.9045121168575,311.270838870805,-0.223204729878324,-0.0163695603165724,-0.0159150504932356,0.0105461177967224,-1.59246378730508
11.85,28.709619927,-1015.835893952,0.152695397,21476.3779527559,12.3211648937293,6.9045121168575,311.248682842176,-0.223233879993544,-0.0162734700782643,-0.0154356815024755,0.0103543702004184,-1.59246378730508
11.9,28.709619927,-1015.835893952,0.152695397,21476.3779527559,12.3211648937293,6.9045121168575,311.229691960494,-0.223263030108764,-0.0163575490367839,-0.0147645649154114,0.0101626226041143,-1.59236791350693
11.95,28.678097217,-1014.925171776,0.502839667,21476.3779527559,12.3211648937293,6.9045121168575,311.204370784919,-0.223292180223984,-0.0162974926378413,-0.0142851959246512,0.0100667488059623,-1.59236791350693
12,28.678097217,-1014.925171776,0.502839667,21476.3779527559,12.3211648937293,6.9045121168575,311.175884462396,-0.223263030108764,-0.0163095039176299,-0.0136140793375871,0.00987500120965825,-1.59227203970878
12.05,28.678097217,-1014.925171776,0.502839667,21476.3779527559,12.3028483512594,6.89635810777106,311.153728433767,-0.223379630569644,-0.0162734700782643,-0.013134710346827,0.00977912741150622,-1.59236791350693
12.1,28.678097217,-1014.925171776,0.502839667,21476.3779527559,12.3028483512594,6.89635810777106,311.131572405138,-0.223408780684864,-0.0162374362388987,-0.0126553413560669,0.00958737981520218,-1.59227203970878
12.15,28.660533747,-1014.336717344,0.830048448,21476.3779527559,12.3028483512594,6.89635810777106,311.10941637651,-0.223554531260963,-0.0162014023995332,-0.0123677199616108,0.00939563221889814,-1.59236791350693
12.2,28.660533747,-1014.336717344,0.830048448,21476.3779527559,12.3028483512594,6.89635810777106,311.087260347881,-0.223379630569644,-0.0162494475186872,-0.0120800985671547,0.00920388462259409,-1.59246378730508
12.25,28.660533747,-1014.336717344,0.830048448,21476.3779527559,12.3028483512594,6.89635810777106,311.068269466199,-0.223437930800084,-0.0162974926378413,-0.0120800985671547,0.00910801082444207,-1.59246378730508
12.3,28.660533747,-1014.336717344,0.830048448,21476.3779527559,12.3028483512594,6.89635810777106,311.052443731464,-0.223437930800084,-0.0162254249591102,-0.0121759723653068,0.00891626322813803,-1.59265553490139
12.35,28.622481469,-1013.480367552,1.465422708,21476.3779527559,12.2845243142958,6.88821159317826,311.036617996729,-0.223408780684864,-0.0162494475186872,-0.0123677199616108,0.00891626322813803,-1.59265553490139
12.4,28.622481469,-1013.480367552,1.465422708,21476.3779527559,12.2845243142958,6.88821159317826,311.014461968101,-0.223437930800084,-0.0162494475186872,-0.0128470889523709,0.00872451563183398,-1.59275140869954
12.45,28.622481469,-1013.480367552,1.465422708,21476.3779527559,12.2845243142958,6.88821159317826,310.998636233366,-0.223292180223984,-0.0162494475186872,-0.013326457943131,0.00872451563183398,-1.59284728249769
12.5,28.622481469,-1013.480367552,1.465422708,21476.3779527559,12.2845243142958,6.88821159317826,310.979645351684,-0.223233879993544,-0.0162494475186872,-0.0141893221264992,0.00872451563183398,-1.59294315629584
12.55,28.576730632,-1012.939145696,1.952829024,21476.3779527559,12.2845243142958,6.88821159317826,310.954324176108,-0.223175579763104,-0.0162014023995332,-0.0148604387135634,0.00872451563183398,-1.59303903009399
12.6,28.576730632,-1012.939145696,1.952829024,21476.3779527559,12.2845243142958,6.88821159317826,310.938498441374,-0.223029829187004,-0.0161893911197446,-0.0169696622729079,0.008820389429986,-1.5932307776903
12.65,28.576730632,-1012.939145696,1.952829024,21476.3779527559,12.2657655967008,6.88049975921691,310.922672706639,-0.223175579763104,-0.0161653685601676,-0.0183118954470362,0.00872451563183398,-1.59332665148845
12.7,28.576730632,-1012.939145696,1.952829024,21476.0498687664,12.2657655967008,6.88049975921691,310.906846971904,-0.223117279532664,-0.016153357280379,-0.0192706334285564,0.00872451563183398,-1.5934225252866
12.75,28.522859789,-1012.15047152,2.681207674,21476.0498687664,12.2657655967008,6.88049975921691,310.891021237169,-0.222854928495684,-0.0161773798399561,-0.0207087404008367,0.00853276803552994,-1.5934225252866
12.8,28.522859789,-1012.15047152,2.681207674,21476.0498687664,12.2657655967008,6.88049975921691,310.86886520854,-0.222913228726124,-0.0161653685601676,-0.0217633521805089,0.00824514664107387,-1.5934225252866
12.85,28.522859789,-1012.15047152,2.681207674,21476.0498687664,12.2657655967008,6.88049975921691,310.856204620752,-0.223000679071784,-0.0161773798399561,-0.0232014591527893,0.00776577765031377,-1.5934225252866
12.9,28.522859789,-1012.15047152,2.681207674,21476.0498687664,12.2657655967008,6.88049975921691,310.840378886018,-0.223292180223984,-0.0161653685601676,-0.0240643233361575,0.00738228245770568,-1.5934225252866
12.95,28.482135804,-1011.66685632,3.29258806,21476.0498687664,12.2507841039032,6.87323010038065,310.821388004336,-0.223204729878324,-0.0162134136793217,-0.0253106827121338,0.00671116587064153,-1.59332665148845
13,28.482135804,-1011.66685632,3.29258806,21475.7217847769,12.2507841039032,6.87323010038065,310.802397122654,-0.223321330339204,-0.0161653685601676,-0.0257900517028939,0.00623179687988142,-1.5932307776903
13.05,28.482135804,-1011.66685632,3.29258806,21475.7217847769,12.2507841039032,6.87323010038065,310.783406240972,-0.223263030108764,-0.0161653685601676,-0.0266529158862621,0.00556068029281726,-1.5932307776903
13.1,28.482135804,-1011.66685632,3.29258806,21475.7217847769,12.2507841039032,6.87323010038065,310.767580506237,-0.223350480454424,-0.0161653685601676,-0.0270364110788701,0.0052730588983612,-1.59313490389215
13.15,28.399307166,-1010.931639168,4.570262804,21475.7217847769,12.2507841039032,6.87323010038065,310.751754771503,-0.223379630569644,-0.0162134136793217,-0.0274199062714782,0.00488956370575311,-1.59313490389215
13.2,28.399307166,-1010.931639168,4.570262804,21475.0656167979,12.2507841039032,6.87323010038065,310.732763889821,-0.223437930800084,-0.0161653685601676,-0.0276116538677823,0.00479368990760109,-1.59313490389215
13.25,28.399307166,-1010.931639168,4.570262804,21475.0656167979,12.2382608050213,6.86615529837917,310.720103302033,-0.223350480454424,-0.0162974926378413,-0.0276116538677823,0.00488956370575311,-1.59313490389215
13.3,28.399307166,-1010.931639168,4.570262804,21475.0656167979,12.2382608050213,6.86615529837917,310.707442714245,-0.223146429647884,-0.0162014023995332,-0.0277075276659343,0.00498543750390513,-1.59313490389215
13.35,28.316354573,-1010.452539744,5.412569448,21475.0656167979,12.2382608050213,6.86615529837917,310.688451832563,-0.222913228726124,-0.0162734700782643,-0.0276116538677823,0.0052730588983612,-1.5932307776903
13.4,28.316354573,-1010.452539744,5.412569448,21475.0656167979,12.2382608050213,6.86615529837917,310.672626097828,-0.223000679071784,-0.0162854813580528,-0.0275157800696303,0.00546480649466524,-1.5932307776903
13.45,28.316354573,-1010.452539744,5.412569448,21475.0656167979,12.2382608050213,6.86615529837917,310.659965510041,-0.222738328034804,-0.0162254249591102,-0.0274199062714782,0.00584830168727333,-1.59332665148845
13.5,28.316354573,-1010.452539744,5.412569448,21474.0813648294,12.2382608050213,6.86615529837917,310.644139775306,-0.222796628265244,-0.0162614587984757,-0.0274199062714782,0.00604004928357737,-1.5934225252866
13.55,28.158702883,-1009.694194496,6.268715191,21474.0813648294,12.2252878365208,6.85971752833758,310.628314040571,-0.222680027804364,-0.0162734700782643,-0.0272281586751742,0.00632767067803344,-1.59351839908475
13.6,28.158702883,-1009.694194496,6.268715191,21474.0813648294,12.2252878365208,6.85971752833758,310.615653452783,-0.222534277228264,-0.0161773798399561,-0.0271322848770222,0.00651941827433748,-1.59361427288291
13.65,28.158702883,-1009.694194496,6.268715191,21474.0813648294,12.2252878365208,6.85971752833758,310.606158011942,-0.222621727573924,-0.0162974926378413,-0.0270364110788701,0.0066152920724895,-1.59371014668106
13.7,28.158702883,-1009.694194496,6.268715191,21472.7690288714,12.2252878365208,6.85971752833758,310.596662571101,-0.222505127113044,-0.0162854813580528,-0.0268446634825661,0.00680703966879355,-1.59380602047921
13.75,28.036815071,-1009.164628224,6.459235933,21472.7690288714,12.2252878365208,6.85971752833758,310.584001983313,-0.222680027804364,-0.0162614587984757,-0.0268446634825661,0.00671116587064153,-1.59390189427736
13.8,28.036815071,-1009.164628224,6.459235933,21472.7690288714,12.2252878365208,6.85971752833758,310.574506542473,-0.222621727573924,-0.0162614587984757,-0.0267487896844141,0.00680703966879355,-1.59399776807551
13.85,28.036815071,-1009.164628224,6.459235933,21472.7690288714,12.2114380122636,6.85594030354018,310.561845954685,-0.222680027804364,-0.0162614587984757,-0.02655704208811,0.0066152920724895,-1.59399776807551
13.9,28.036815071,-1009.164628224,6.459235933,21472.7690288714,12.2114380122636,6.85594030354018,310.555515660791,-0.222650877689144,-0.0162614587984757,-0.026461168289958,0.00651941827433748,-1.59399776807551
13.95,27.881486107,-1008.371072128,6.574329104,21472.7690288714,12.2114380122636,6.85594030354018,310.539689926056,-0.222738328034804,-0.0163095039176299,-0.0259817992991979,0.00651941827433748,-1.59399776807551
14,27.881486107,-1008.371072128,6.574329104,21471.4566929134,12.2114380122636,6.85594030354018,310.527029338268,-0.222505127113044,-0.0163455377569954,-0.0255983041065898,0.0066152920724895,-1.59399776807551
14.05,27.881486107,-1008.371072128,6.574329104,21471.4566929134,12.2114380122636,6.85594030354018,310.517533897427,-0.222592577458704,-0.0163935828761495,-0.0247354399232216,0.00690291346694557,-1.59390189427736
14.1,27.881486107,-1008.371072128,6.574329104,21471.4566929134,12.2114380122636,6.85594030354018,310.51436875048,-0.222505127113044,-0.016381571596361,-0.0240643233361575,0.00719053486140163,-1.59399776807551
14.15,27.799056032,-1007.8693328,6.554303697,21471.4566929134,12.203583782923,6.86925052425482,310.504873309639,-0.222417676767384,-0.0164656505548806,-0.0228179639601812,0.00766990385216174,-1.59399776807551
